name,Latitude,Longitude,Number,Street,City,State,County,Zip,url,count,total_homeless,adjusted_homeless
New Life Global Development,34.200774,-118.135682,3323,N Marengo Ave,Altadena,CA,Los Angeles City & County CoC,91001,https://www.homelessshelterdirectory.org/cgi-bin/id/shelter.cgi?shelter=15616,63,63706,1011.2063492063492
Via Esperanza,33.843345,-117.909122,626,N Pauline St,Anaheim,CA,"Santa Ana, Anaheim/Orange County CoC",92805,https://www.homelessshelterdirectory.org/cgi-bin/id/shelter.cgi?shelter=15269,27,6978,258.44444444444446
Salvation Army Anaheim Emergency Shelter,33.81534,-117.896978,1300,S Lewis St,Anaheim,CA,"Santa Ana, Anaheim/Orange County CoC",92805,https://www.homelessshelterdirectory.org/cgi-bin/id/shelter.cgi?shelter=15728,27,6978,258.44444444444446
Santa Ana Lakewood Housing Coalition,33.805454,-117.883449,2400,Katella Ave,Anaheim,CA,"Santa Ana, Anaheim/Orange County CoC",92806,https://www.homelessshelterdirectory.org/cgi-bin/id/shelter.cgi?shelter=15802,27,6978,258.44444444444446
Don Brown Shelter,38.015262,-121.823801,1401,W 4th St,Antioch,CA,Richmond/Contra Costa County CoC,94509,https://www.homelessshelterdirectory.org/cgi-bin/id/shelter.cgi?shelter=7879,16,2277,142.3125
Arcata House,40.870954,-124.088567,1005,11th St,Arcata,CA,Humboldt County CoC,95521,https://www.homelessshelterdirectory.org/cgi-bin/id/shelter.cgi?shelter=14203,4,1701,425.25
ECHO (El Camino Homeless Organization),35.485799,-120.670082,6370,Atascadero Ave,Atascadero,CA,San Luis Obispo County CoC,93422,https://www.homelessshelterdirectory.org/cgi-bin/id/shelter.cgi?shelter=20427,2,1423,711.5
Auburn Temporary Homeless Shelter,38.936366,-121.104266,11442,E Ave W,Auburn,CA,"Roseville, Rocklin/Placer County CoC",95603,https://www.homelessshelterdirectory.org/cgi-bin/id/shelter.cgi?shelter=14389,1,744,744.0
The Mission At Kern County,35.37551,-118.990876,816,E 21st St,Bakersfield,CA,Bakersfield/Kern County CoC,93305,https://www.homelessshelterdirectory.org/cgi-bin/id/shelter.cgi?shelter=11782,5,1580,316.0
Bakersfield Homeless Center,35.373507,-118.979079,1600,E Truxtun Ave,Bakersfield,CA,Bakersfield/Kern County CoC,93305,https://www.homelessshelterdirectory.org/cgi-bin/id/shelter.cgi?shelter=9622,5,1580,316.0
Transitional Housing Center Bakersfield,35.405108,-119.025379,100,S Plymouth Ave,Bakersfield,CA,Bakersfield/Kern County CoC,93308,https://www.homelessshelterdirectory.org/cgi-bin/id/shelter.cgi?shelter=14588,5,1580,316.0
California Veterans Assistance  Bakersfield,35.412712,-119.036792,731,Decatur St,Bakersfield,CA,Bakersfield/Kern County CoC,93308,https://www.homelessshelterdirectory.org/cgi-bin/id/shelter.cgi?shelter=14589,5,1580,316.0
New Hope Village Inc,34.896359,-117.027931,100,W Fredricks St,Barstow,CA,San Bernardino City & County CoC,92311,https://www.homelessshelterdirectory.org/cgi-bin/id/shelter.cgi?shelter=7800,14,3125,223.21428571428572
Love,38.02618,-121.934429,2279,Willow Pass Rd,Bay Point,CA,Richmond/Contra Costa County CoC,94565,https://www.homelessshelterdirectory.org/cgi-bin/id/shelter.cgi?shelter=7717,16,2277,142.3125
Bell Shelter,33.988868,-118.163568,5650,Rickenbacker Rd,Bell,CA,Los Angeles City & County CoC,90201,https://www.homelessshelterdirectory.org/cgi-bin/id/shelter.cgi?shelter=13787,63,63706,1011.2063492063492
At The Fountain Transitional Living INC,33.88177,-118.129747,9556,Flower St,Bellflower,CA,Los Angeles City & County CoC,90706,https://www.homelessshelterdirectory.org/cgi-bin/id/shelter.cgi?shelter=13439,63,63706,1011.2063492063492
"Berkeley Food and Housing, North County Women's Shelter",37.863869,-122.266048,2140,Dwight Way,Berkeley,CA,"Oakland, Berkeley/Alameda County CoC",94704,https://www.homelessshelterdirectory.org/cgi-bin/id/shelter.cgi?shelter=15341,22,8137,369.8636363636364
Women's Daytime Drop,37.866348,-122.284348,2218,Acton St,Berkeley,CA,"Oakland, Berkeley/Alameda County CoC",94702,https://www.homelessshelterdirectory.org/cgi-bin/id/shelter.cgi?shelter=15724,22,8137,369.8636363636364
Berkeley Food and Housing Project,37.850981,-122.269974,1901,Fairview St,Berkeley,CA,"Oakland, Berkeley/Alameda County CoC",94703,https://www.homelessshelterdirectory.org/cgi-bin/id/shelter.cgi?shelter=7174,22,8137,369.8636363636364
Berkeley Food and Housing Men's Housing Program,37.863869,-122.266048,2140,Dwight Way,Berkeley,CA,"Oakland, Berkeley/Alameda County CoC",94704,https://www.homelessshelterdirectory.org/cgi-bin/id/shelter.cgi?shelter=7153,22,8137,369.8636363636364
Harrison House,37.880791,-122.304794,711,Harrison St,Berkeley,CA,"Oakland, Berkeley/Alameda County CoC",94710,https://www.homelessshelterdirectory.org/cgi-bin/id/shelter.cgi?shelter=15759,22,8137,369.8636363636364
Shepherd's Gate,37.940309,-121.684875,605,Sycamore Ave,Brentwood,CA,Richmond/Contra Costa County CoC,94513,https://www.homelessshelterdirectory.org/cgi-bin/id/shelter.cgi?shelter=8039,16,2277,142.3125
First Southern Baptist,33.861517,-118.003453,6801,Western Ave,Buena Park,CA,"Santa Ana, Anaheim/Orange County CoC",90621,https://www.homelessshelterdirectory.org/cgi-bin/id/shelter.cgi?shelter=15052,27,6978,258.44444444444446
HOME & HOPE Homeless Assistance,37.593508,-122.380636,1720,El Camino Real,Burlingame,CA,Daly/San Mateo County CoC,94010,https://www.homelessshelterdirectory.org/cgi-bin/id/shelter.cgi?shelter=11581,13,1572,120.92307692307692
Shelter Network,37.577608,-122.35118,1450,Chapin Ave,Burlingame,CA,Daly/San Mateo County CoC,94010,https://www.homelessshelterdirectory.org/cgi-bin/id/shelter.cgi?shelter=11688,13,1572,120.92307692307692
Our Lady of Guadalupe Men's Shelter,32.671639,-115.488732,545,Encinas Ave,Calexico,CA,Imperial County CoC,92231,https://www.homelessshelterdirectory.org/cgi-bin/id/shelter.cgi?shelter=11342,2,1527,763.5
Calexico Housing Authority Transitional Homeless Housing,32.66967,-115.483589,1006,E 5th St,Calexico,CA,Imperial County CoC,92231,https://www.homelessshelterdirectory.org/cgi-bin/id/shelter.cgi?shelter=11343,2,1527,763.5
Family Promise of Santa Clarita Valley,34.417347,-118.457422,18565,Soledad Canyon Rd,Canyon Country,CA,Los Angeles City & County CoC,91351,https://www.homelessshelterdirectory.org/cgi-bin/id/shelter.cgi?shelter=11733,63,63706,1011.2063492063492
La Posada de Guadalupe Shelter,33.139221,-117.271876,2476,Impala Dr,Carlsbad,CA,San Diego City and County CoC,92010,https://www.homelessshelterdirectory.org/cgi-bin/id/shelter.cgi?shelter=11341,23,7638,332.0869565217391
Jesus Center,39.723489,-121.83024,1297,Park Ave,Chico,CA,"Chico, Paradise/Butte County CoC",95928,https://www.homelessshelterdirectory.org/cgi-bin/id/shelter.cgi?shelter=9661,6,1274,212.33333333333334
Torres Community Shelter,39.719892,-121.810383,101,Silver Dollar Way,Chico,CA,"Chico, Paradise/Butte County CoC",95928,https://www.homelessshelterdirectory.org/cgi-bin/id/shelter.cgi?shelter=9774,6,1274,212.33333333333334
Esplanade House,39.763915,-121.866425,181,E Shasta Ave,Chico,CA,"Chico, Paradise/Butte County CoC",95973,https://www.homelessshelterdirectory.org/cgi-bin/id/shelter.cgi?shelter=20333,6,1274,212.33333333333334
South Bay Community Services,32.63938,-117.084859,430,F St,Chula Vista,CA,San Diego City and County CoC,91910,https://www.homelessshelterdirectory.org/cgi-bin/id/shelter.cgi?shelter=11344,23,7638,332.0869565217391
Wallace House,38.807027,-123.016309,126,N Main St,Cloverdale,CA,"Santa Rosa, Petaluma/Sonoma County CoC",95425,https://www.homelessshelterdirectory.org/cgi-bin/id/shelter.cgi?shelter=12738,11,2745,249.54545454545453
Jordan's Transitional Shelter,33.908108,-118.205069,1616,E Pine St,Compton,CA,Los Angeles City & County CoC,90221,https://www.homelessshelterdirectory.org/cgi-bin/id/shelter.cgi?shelter=9732,63,63706,1011.2063492063492
Saving People of Tomorrow,33.888443,-118.202595,1806,E Alondra Blvd,Compton,CA,Los Angeles City & County CoC,90221,https://www.homelessshelterdirectory.org/cgi-bin/id/shelter.cgi?shelter=20412,63,63706,1011.2063492063492
At The Fountain Transitional Living,33.915556,-118.217913,2515,N Santa Fe Ave,Compton,CA,Los Angeles City & County CoC,90222,https://www.homelessshelterdirectory.org/cgi-bin/id/shelter.cgi?shelter=13152,63,63706,1011.2063492063492
STAND Domestic Violence,37.9689,-122.049096,1410,Danzig Plz,Concord,CA,Richmond/Contra Costa County CoC,94520,https://www.homelessshelterdirectory.org/cgi-bin/id/shelter.cgi?shelter=13127,16,2277,142.3125
Anka Behavioral Health,37.971987,-122.042237,1850,Gateway Blvd,Concord,CA,Richmond/Contra Costa County CoC,94520,https://www.homelessshelterdirectory.org/cgi-bin/id/shelter.cgi?shelter=7125,16,2277,142.3125
SIPS,37.975234,-122.037996,1849,Willow Pass Rd,Concord,CA,Richmond/Contra Costa County CoC,94520,https://www.homelessshelterdirectory.org/cgi-bin/id/shelter.cgi?shelter=7935,16,2277,142.3125
Central County Interim Housing Program,38.006704,-122.038042,2047,Arnold Industrial Way,Concord,CA,Richmond/Contra Costa County CoC,94520,https://www.homelessshelterdirectory.org/cgi-bin/id/shelter.cgi?shelter=7265,16,2277,142.3125
Nierika House,37.99171,-122.047697,1959,Solano Way,Concord,CA,Richmond/Contra Costa County CoC,94520,https://www.homelessshelterdirectory.org/cgi-bin/id/shelter.cgi?shelter=7812,16,2277,142.3125
Corona Norco Rescue Mission,33.885007,-117.568743,420,E Harrison St,Corona,CA,Riverside City & County CoC,92879,https://www.homelessshelterdirectory.org/cgi-bin/id/shelter.cgi?shelter=9659,12,2884,240.33333333333334
Settlement House,33.87722,-117.574765,507,S Vicentia Ave,Corona,CA,Riverside City & County CoC,92882,https://www.homelessshelterdirectory.org/cgi-bin/id/shelter.cgi?shelter=14877,12,2884,240.33333333333334
Daly City Community Service Center,37.706313,-122.462942,50,Hillcrest Dr,Daly City,CA,Daly/San Mateo County CoC,94014,https://www.homelessshelterdirectory.org/cgi-bin/id/shelter.cgi?shelter=8031,13,1572,120.92307692307692
St. Anne's Service Intensive Transitional Home,34.001663,-117.810397,1142,S Diamond Bar Blvd,Diamond Bar,CA,Los Angeles City & County CoC,91765,https://www.homelessshelterdirectory.org/cgi-bin/id/shelter.cgi?shelter=15536,63,63706,1011.2063492063492
Open Gate Ministries Family Shelter,36.5454,-119.394089,511,N K St,Dinuba,CA,"Visalia/Kings, Tulare Counties CoC",93618,https://www.homelessshelterdirectory.org/cgi-bin/id/shelter.cgi?shelter=13770,6,1297,216.16666666666666
Ollie house,33.918566,-118.15548,8017,Cheyenne Ave,Downey,CA,Los Angeles City & County CoC,90242,https://www.homelessshelterdirectory.org/cgi-bin/id/shelter.cgi?shelter=14260,63,63706,1011.2063492063492
Union Station Homeless Services,34.139956,-117.96691,1755,E Huntington Dr,Duarte,CA,Los Angeles City & County CoC,91010,https://www.homelessshelterdirectory.org/cgi-bin/id/shelter.cgi?shelter=14733,63,63706,1011.2063492063492
WeHOPE Shelter,37.472418,-122.132857,1858,Bay Rd,East Palo Alto,CA,Daly/San Mateo County CoC,94303,https://www.homelessshelterdirectory.org/cgi-bin/id/shelter.cgi?shelter=15016,13,1572,120.92307692307692
El Concillo,37.471219,-122.134115,1798,Bay Rd,East Palo Alto,CA,Daly/San Mateo County CoC,94303,https://www.homelessshelterdirectory.org/cgi-bin/id/shelter.cgi?shelter=12144,13,1572,120.92307692307692
East County Transitional Living Center,32.804561,-116.924472,1527,E Main St,El Cajon,CA,San Diego City and County CoC,92021,https://www.homelessshelterdirectory.org/cgi-bin/id/shelter.cgi?shelter=11776,23,7638,332.0869565217391
Coastside Opportunity Center,37.505165,-122.480179,99,Ave Alhambra,El Granada,CA,Daly/San Mateo County CoC,94018,https://www.homelessshelterdirectory.org/cgi-bin/id/shelter.cgi?shelter=7327,13,1572,120.92307692307692
Volunteers of America Homeless Support Services,34.087946,-118.028125,4501,Santa Anita Ave,El Monte,CA,Los Angeles City & County CoC,91731,https://www.homelessshelterdirectory.org/cgi-bin/id/shelter.cgi?shelter=11237,63,63706,1011.2063492063492
Operation Dignity,37.829665,-122.279157,3850,San Pablo Ave,Emeryville,CA,"Oakland, Berkeley/Alameda County CoC",94608,https://www.homelessshelterdirectory.org/cgi-bin/id/shelter.cgi?shelter=7839,22,8137,369.8636363636364
New Resolve Residential Program Transitional Substance Abuse Program,33.11026,-117.077337,1207,S Escondido Blvd,Escondido,CA,San Diego City and County CoC,92025,https://www.homelessshelterdirectory.org/cgi-bin/id/shelter.cgi?shelter=11351,23,7638,332.0869565217391
Inland Service Center,33.125169,-117.091993,550,W Washington Ave,Escondido,CA,San Diego City and County CoC,92025,https://www.homelessshelterdirectory.org/cgi-bin/id/shelter.cgi?shelter=11339,23,7638,332.0869565217391
Tikkun Home Temporary Emergency Shelter Women,33.125169,-117.091993,550,W Washington Ave,Escondido,CA,San Diego City and County CoC,92025,https://www.homelessshelterdirectory.org/cgi-bin/id/shelter.cgi?shelter=11346,23,7638,332.0869565217391
Escondido Family Services Salvation Army,33.138607,-117.093856,1301,Las Villas Way,Escondido,CA,San Diego City and County CoC,92026,https://www.homelessshelterdirectory.org/cgi-bin/id/shelter.cgi?shelter=11345,23,7638,332.0869565217391
Eureka Mission Men's Emergency Overnight Shelter,40.80364,-124.170431,110,2nd St,Eureka,CA,Humboldt County CoC,95501,https://www.homelessshelterdirectory.org/cgi-bin/id/shelter.cgi?shelter=14204,4,1701,425.25
Women and Children's Emergency Overnight Shelter,40.803291,-124.170347,107,3rd St,Eureka,CA,Humboldt County CoC,95501,https://www.homelessshelterdirectory.org/cgi-bin/id/shelter.cgi?shelter=14205,4,1701,425.25
YSB Our House Shelter,40.798493,-124.164374,904,G St,Eureka,CA,Humboldt County CoC,95501,https://www.homelessshelterdirectory.org/cgi-bin/id/shelter.cgi?shelter=11845,4,1701,425.25
"Mission Solano Rescue Mission, Inc",38.233017,-122.065239,360,Beck Ave,Fairfield,CA,Vallejo/Solano County CoC,94533,https://www.homelessshelterdirectory.org/cgi-bin/id/shelter.cgi?shelter=12212,3,1162,387.3333333333333
Safe Alternatives To Violent Environments,37.558499,-121.979612,1900,Mowry Ave,Fremont,CA,"Oakland, Berkeley/Alameda County CoC",94538,https://www.homelessshelterdirectory.org/cgi-bin/id/shelter.cgi?shelter=8027,22,8137,369.8636363636364
Sunrise Village Emergency Shelter,37.494408,-121.928107,588,Brown Rd,Fremont,CA,"Oakland, Berkeley/Alameda County CoC",94539,https://www.homelessshelterdirectory.org/cgi-bin/id/shelter.cgi?shelter=14596,22,8137,369.8636363636364
Evangel Home,36.744787,-119.801964,137,N Yosemite Ave,Fresno,CA,Fresno City & County/Madera County CoC,93701,https://www.homelessshelterdirectory.org/cgi-bin/id/shelter.cgi?shelter=10536,7,3641,520.1428571428571
Poverello House,36.724897,-119.788282,412,F St,Fresno,CA,Fresno City & County/Madera County CoC,93706,https://www.homelessshelterdirectory.org/cgi-bin/id/shelter.cgi?shelter=11781,7,3641,520.1428571428571
Holy Cross Center,36.724706,-119.789052,421,F St,Fresno,CA,Fresno City & County/Madera County CoC,93706,https://www.homelessshelterdirectory.org/cgi-bin/id/shelter.cgi?shelter=20421,7,3641,520.1428571428571
Fresno Rescue Mission,36.723784,-119.786153,263,G St,Fresno,CA,Fresno City & County/Madera County CoC,93706,https://www.homelessshelterdirectory.org/cgi-bin/id/shelter.cgi?shelter=10535,7,3641,520.1428571428571
Sanctuary Transitional Shelter,36.742053,-119.780396,1046,T St,Fresno,CA,Fresno City & County/Madera County CoC,93721,https://www.homelessshelterdirectory.org/cgi-bin/id/shelter.cgi?shelter=20422,7,3641,520.1428571428571
Decision Home of Fresno,36.753338,-119.804462,805,N Echo Ave,Fresno,CA,Fresno City & County/Madera County CoC,93728,https://www.homelessshelterdirectory.org/cgi-bin/id/shelter.cgi?shelter=12946,7,3641,520.1428571428571
Naomi's House,36.725123,-119.789493,445,F St,Fresno,CA,Fresno City & County/Madera County CoC,93706,https://www.homelessshelterdirectory.org/cgi-bin/id/shelter.cgi?shelter=10534,7,3641,520.1428571428571
First Christian Church Hot Meal Program,33.872686,-117.923604,115,E Wilshire Ave,Fullerton,CA,"Santa Ana, Anaheim/Orange County CoC",92832,https://www.homelessshelterdirectory.org/cgi-bin/id/shelter.cgi?shelter=15265,27,6978,258.44444444444446
Santa Ana Armory Cold Weather Shelter,33.715082,-117.862104,612,E Warner Ave,Santa Ana,CA,"Santa Ana, Anaheim/Orange County CoC",92707,https://www.homelessshelterdirectory.org/cgi-bin/id/shelter.cgi?shelter=15271,27,6978,258.44444444444446
La Isla Pacifica Shelter For Women and Children,37.001493,-121.560359,6980,Chestnut St,Gilroy,CA,San Jose/Santa Clara City & County CoC,95020,https://www.homelessshelterdirectory.org/cgi-bin/id/shelter.cgi?shelter=7688,22,9605,436.59090909090907
Nancy Painter Home Transitional Housing For Women,34.154423,-118.270099,609,Chester St,Glendale,CA,Glendale CoC,91203,https://www.homelessshelterdirectory.org/cgi-bin/id/shelter.cgi?shelter=13320,4,169,42.25
Ascencia,34.12862,-118.26141,1851,Tyburn St,Glendale,CA,Glendale CoC,91204,https://www.homelessshelterdirectory.org/cgi-bin/id/shelter.cgi?shelter=13318,4,169,42.25
Salvation Army Glendale Chester Village For Homeless Families,34.136364,-118.258671,320,W Windsor Rd,Glendale,CA,Glendale CoC,91204,https://www.homelessshelterdirectory.org/cgi-bin/id/shelter.cgi?shelter=13321,4,169,42.25
Glendale YWCA Domestic Violence Project,34.15165,-118.247355,75,E Lexington Dr,Glendale,CA,Glendale CoC,91206,https://www.homelessshelterdirectory.org/cgi-bin/id/shelter.cgi?shelter=13319,4,169,42.25
Hospitality House,39.239586,-121.033394,1262,Sutton Way,Grass Valley,CA,Nevada County CoC,95945,https://www.homelessshelterdirectory.org/shelter/ca_hospitality-house,1,387,387.0
East San Gabriel Valley Coalition For The Homeless,34.010603,-117.979765,1345,Turnbull Canyon Rd,Hacienda Heights,CA,Los Angeles City & County CoC,91745,https://www.homelessshelterdirectory.org/cgi-bin/id/shelter.cgi?shelter=11245,63,63706,1011.2063492063492
Kings Gospel Mission Men's Shelter,36.324976,-119.656962,805,W 7th St,Hanford,CA,"Visalia/Kings, Tulare Counties CoC",93230,https://www.homelessshelterdirectory.org/cgi-bin/id/shelter.cgi?shelter=15905,6,1297,216.16666666666666
Kings Gospel Mission Women's Shelter,36.324976,-119.657164,807,W 7th St,Hanford,CA,"Visalia/Kings, Tulare Counties CoC",93230,https://www.homelessshelterdirectory.org/cgi-bin/id/shelter.cgi?shelter=15906,6,1297,216.16666666666666
Family Emergency Shelter Coalition (FESCO),37.681266,-122.093415,21455,Birch St,Hayward,CA,"Oakland, Berkeley/Alameda County CoC",94541,https://www.homelessshelterdirectory.org/cgi-bin/id/shelter.cgi?shelter=14592,22,8137,369.8636363636364
FESCO,37.681266,-122.093415,21455,Birch St,Hayward,CA,"Oakland, Berkeley/Alameda County CoC",94541,https://www.homelessshelterdirectory.org/cgi-bin/id/shelter.cgi?shelter=7445,22,8137,369.8636363636364
South County Homeless Project,37.666195,-122.10372,258,W A St,Hayward,CA,"Oakland, Berkeley/Alameda County CoC",94541,https://www.homelessshelterdirectory.org/cgi-bin/id/shelter.cgi?shelter=14595,22,8137,369.8636363636364
"Eden I & R, Inc",37.669961,-122.090077,570,B St,Hayward,CA,"Oakland, Berkeley/Alameda County CoC",94541,https://www.homelessshelterdirectory.org/cgi-bin/id/shelter.cgi?shelter=14591,22,8137,369.8636363636364
Ruby's Place Hayward,37.675086,-122.079975,1180,B St,Hayward,CA,"Oakland, Berkeley/Alameda County CoC",94541,https://www.homelessshelterdirectory.org/cgi-bin/id/shelter.cgi?shelter=7433,22,8137,369.8636363636364
Family Emergency Shelter Hayward,37.675396,-122.077003,22671,3rd St,Hayward,CA,"Oakland, Berkeley/Alameda County CoC",94541,https://www.homelessshelterdirectory.org/cgi-bin/id/shelter.cgi?shelter=15007,22,8137,369.8636363636364
Images on the Rise,37.651789,-122.090944,249,W Jackson St,Hayward,CA,"Oakland, Berkeley/Alameda County CoC",94544,https://www.homelessshelterdirectory.org/cgi-bin/id/shelter.cgi?shelter=7634,22,8137,369.8636363636364
Salvation Army Emergency Shelter,33.743321,-116.979744,340,S Palm Ave,Hemet,CA,Riverside City & County CoC,92543,https://www.homelessshelterdirectory.org/cgi-bin/id/shelter.cgi?shelter=20322,12,2884,240.33333333333334
Valley Restart Shelter,33.758922,-116.970894,200,E Menlo Ave,Hemet,CA,Riverside City & County CoC,92543,https://www.homelessshelterdirectory.org/cgi-bin/id/shelter.cgi?shelter=14878,12,2884,240.33333333333334
San Bernardino Salvation Army Corps,34.128748,-117.230221,2626,Pacific St,Highland,CA,San Bernardino City & County CoC,92346,https://www.homelessshelterdirectory.org/cgi-bin/id/shelter.cgi?shelter=15705,14,3125,223.21428571428572
My Father's House,36.846137,-121.404347,910,Monterey St,Hollister,CA,"Salinas/Monterey, San Benito Counties CoC",95023,https://www.homelessshelterdirectory.org/cgi-bin/id/shelter.cgi?shelter=15231,5,2683,536.6
HOME Resource Center,36.873493,-121.400166,1161,San Felipe Rd,Hollister,CA,"Salinas/Monterey, San Benito Counties CoC",95023,https://www.homelessshelterdirectory.org/cgi-bin/id/shelter.cgi?shelter=11908,5,2683,536.6
Colette's Children's Home,33.717927,-117.999593,7372,Prince Dr,Huntington Beach,CA,"Santa Ana, Anaheim/Orange County CoC",92647,https://www.homelessshelterdirectory.org/cgi-bin/id/shelter.cgi?shelter=15345,27,6978,258.44444444444446
Build Futures,33.688933,-117.98815,18822,Beach Blvd,Huntington Beach,CA,"Santa Ana, Anaheim/Orange County CoC",92648,https://www.homelessshelterdirectory.org/cgi-bin/id/shelter.cgi?shelter=14331,27,6978,258.44444444444446
Off The Streets,33.660677,-117.999193,419,Main St,Huntington Beach,CA,"Santa Ana, Anaheim/Orange County CoC",92648,https://www.homelessshelterdirectory.org/cgi-bin/id/shelter.cgi?shelter=15289,27,6978,258.44444444444446
Robyne's Nest,33.659371,-118.000497,412,Olive Ave,Huntington Beach,CA,"Santa Ana, Anaheim/Orange County CoC",92648,https://www.homelessshelterdirectory.org/cgi-bin/id/shelter.cgi?shelter=15278,27,6978,258.44444444444446
HPRP Huntington Park,33.981338,-118.216662,2965,E Gage Ave,Huntington Park,CA,Los Angeles City & County CoC,90255,https://www.homelessshelterdirectory.org/cgi-bin/id/shelter.cgi?shelter=11228,63,63706,1011.2063492063492
Martha's Village & Kitchen,33.71083,-116.205087,83791,Date Ave,Indio,CA,Riverside City & County CoC,92201,https://www.homelessshelterdirectory.org/cgi-bin/id/shelter.cgi?shelter=10601,12,2884,240.33333333333334
Coachella Valley Rescue Mission,33.704501,-116.198145,47470,Van Buren St,Indio,CA,Riverside City & County CoC,92201,https://www.homelessshelterdirectory.org/cgi-bin/id/shelter.cgi?shelter=14707,12,2884,240.33333333333334
Human Options,33.696861,-117.764945,5540,Trabuco Rd,Irvine,CA,"Santa Ana, Anaheim/Orange County CoC",92620,https://www.homelessshelterdirectory.org/cgi-bin/id/shelter.cgi?shelter=13774,27,6978,258.44444444444446
Good Samaritan Shelter,34.411353,-119.856612,976,Embarcadero Del Mar,Isla Vista,CA,Santa Maria/Santa Barbara County CoC,93117,https://www.homelessshelterdirectory.org/cgi-bin/id/shelter.cgi?shelter=20472,9,1897,210.77777777777777
ATCAA,38.352965,-120.834147,10590,State Rte 88,Jackson,CA,"Amador, Calaveras, Mariposa, Tuolumne Counties CoC",95642,https://www.homelessshelterdirectory.org/cgi-bin/id/shelter.cgi?shelter=8022,1,834,834.0
Laura's House,33.556419,-117.629792,999,Corporate Dr,Ladera Ranch,CA,"Santa Ana, Anaheim/Orange County CoC",92694,https://www.homelessshelterdirectory.org/cgi-bin/id/shelter.cgi?shelter=15263,27,6978,258.44444444444446
Alternative Sleeping Location (ASL) Emergency Shelter,33.573152,-117.762544,20652,Laguna Cyn,Laguna Beach,CA,"Santa Ana, Anaheim/Orange County CoC",92651,https://www.homelessshelterdirectory.org/cgi-bin/id/shelter.cgi?shelter=20388,27,6978,258.44444444444446
Set Free Ranch Lake Elsinore,33.627741,-117.328879,18569,Grand Ave,Lake Elsinore,CA,Riverside City & County CoC,92530,https://www.homelessshelterdirectory.org/cgi-bin/id/shelter.cgi?shelter=20323,12,2884,240.33333333333334
Belinda's Place,32.845752,-116.908139,13221,Idyl Dr,Lakeside,CA,San Diego City and County CoC,92040,https://www.homelessshelterdirectory.org/cgi-bin/id/shelter.cgi?shelter=14230,23,7638,332.0869565217391
HPRP Lancaster,34.698106,-118.144759,44933,Fern Ave,Lancaster,CA,Los Angeles City & County CoC,93534,https://www.homelessshelterdirectory.org/cgi-bin/id/shelter.cgi?shelter=11218,63,63706,1011.2063492063492
Guiding Light Awareness,34.703074,-118.154116,1321,W Ivesbrook St,Lancaster,CA,Los Angeles City & County CoC,93534,https://www.homelessshelterdirectory.org/cgi-bin/id/shelter.cgi?shelter=15501,63,63706,1011.2063492063492
Antelope Valley Access Center,34.702937,-118.137311,45134,Sierra Hwy,Lancaster,CA,Los Angeles City & County CoC,93534,https://www.homelessshelterdirectory.org/cgi-bin/id/shelter.cgi?shelter=11242,63,63706,1011.2063492063492
Valley Oasis,34.6724,-118.127542,43434,E Sahuayo St,Lancaster,CA,Los Angeles City & County CoC,93535,https://www.homelessshelterdirectory.org/cgi-bin/id/shelter.cgi?shelter=15854,63,63706,1011.2063492063492
High Desert MACC,34.702987,-118.236523,45150,60th St W,Lancaster,CA,Los Angeles City & County CoC,93536,https://www.homelessshelterdirectory.org/cgi-bin/id/shelter.cgi?shelter=20430,63,63706,1011.2063492063492
Tri,37.675726,-121.753084,3663,Pacific Ave,Livermore,CA,"Oakland, Berkeley/Alameda County CoC",94550,https://www.homelessshelterdirectory.org/cgi-bin/id/shelter.cgi?shelter=8161,22,8137,369.8636363636364
Shepherd's Gate,37.693112,-121.778976,1660,Portola Ave,Livermore,CA,"Oakland, Berkeley/Alameda County CoC",94551,https://www.homelessshelterdirectory.org/cgi-bin/id/shelter.cgi?shelter=8040,22,8137,369.8636363636364
God's Love Outreach Ministries,37.687628,-121.785777,851,Rincon Ave,Livermore,CA,"Oakland, Berkeley/Alameda County CoC",94551,https://www.homelessshelterdirectory.org/cgi-bin/id/shelter.cgi?shelter=10300,22,8137,369.8636363636364
Bridgehouse Homeless Shelter,34.645254,-120.427756,2025,Sweeney Rd,Lompoc,CA,Santa Maria/Santa Barbara County CoC,93436,https://www.homelessshelterdirectory.org/cgi-bin/id/shelter.cgi?shelter=7212,9,1897,210.77777777777777
New Image Emergency Shelter,33.767169,-118.187287,401,E Ocean Blvd,Long Beach,CA,Long Beach CoC,90802,https://www.homelessshelterdirectory.org/cgi-bin/id/shelter.cgi?shelter=10357,5,2034,406.8
Long Beach Rescue Mission Services For Women and Children Lydia House,33.784473,-118.1933,1430,Pacific Ave,Long Beach,CA,Long Beach CoC,90813,https://www.homelessshelterdirectory.org/cgi-bin/id/shelter.cgi?shelter=14672,5,2034,406.8
Long Beach Rescue Mission Samaritan House and Services for Men,33.783389,-118.194128,1335,Pacific Ave,Long Beach,CA,Long Beach CoC,90813,https://www.homelessshelterdirectory.org/cgi-bin/id/shelter.cgi?shelter=10485,5,2034,406.8
The Good Seed,33.781842,-118.192176,1230,Pine Ave,Long Beach,CA,Long Beach CoC,90813,https://www.homelessshelterdirectory.org/cgi-bin/id/shelter.cgi?shelter=15872,5,2034,406.8
Beyond Shelter,33.782005,-118.209021,1301,W 12th St N,Long Beach,CA,Long Beach CoC,90813,https://www.homelessshelterdirectory.org/cgi-bin/id/shelter.cgi?shelter=11240,5,2034,406.8
Casa Youth Shelter,33.803977,-118.06965,10911,Reagan St,Los Alamitos,CA,"Santa Ana, Anaheim/Orange County CoC",90720,https://www.homelessshelterdirectory.org/cgi-bin/id/shelter.cgi?shelter=7237,27,6978,258.44444444444446
Los Angeles Youth Network,34.103333,-118.314582,1754,Taft Ave,Los Angeles,CA,Los Angeles City & County CoC,90028,https://www.homelessshelterdirectory.org/cgi-bin/id/shelter.cgi?shelter=9811,63,63706,1011.2063492063492
Salvation Army Hope Harbor Los Angeles,34.0223,-118.27511,3107,S Grand Ave,Los Angeles,CA,Los Angeles City & County CoC,90007,https://www.homelessshelterdirectory.org/cgi-bin/id/shelter.cgi?shelter=13788,63,63706,1011.2063492063492
Ella's Foundation Homeless Services,34.025696,-118.285121,3175,S Hoover St,Los Angeles,CA,Los Angeles City & County CoC,90007,https://www.homelessshelterdirectory.org/cgi-bin/id/shelter.cgi?shelter=11758,63,63706,1011.2063492063492
Good Seed Shelter,34.01071,-118.32385,2814,W Martin Luther King Jr Blvd,Los Angeles,CA,Los Angeles City & County CoC,90008,https://www.homelessshelterdirectory.org/cgi-bin/id/shelter.cgi?shelter=13814,63,63706,1011.2063492063492
Jenesse Center,34.006122,-118.338974,3761,Stocker St,View Park,CA,Los Angeles City & County CoC,90008,https://www.homelessshelterdirectory.org/cgi-bin/id/shelter.cgi?shelter=7663,63,63706,1011.2063492063492
"Jenesse Center, Inc.",34.006122,-118.338974,3761,Stocker St,View Park,CA,Los Angeles City & County CoC,90008,https://www.homelessshelterdirectory.org/cgi-bin/id/shelter.cgi?shelter=9801,63,63706,1011.2063492063492
El Puente Bridge Housing,34.05492,-118.23798,711,N Alameda St,Los Angeles,CA,Los Angeles City & County CoC,90012,https://www.homelessshelterdirectory.org/cgi-bin/id/shelter.cgi?shelter=15863,63,63706,1011.2063492063492
Downtown Women's Center,34.04464,-118.2434,442,S San Pedro St,Los Angeles,CA,Los Angeles City & County CoC,90013,https://www.homelessshelterdirectory.org/cgi-bin/id/shelter.cgi?shelter=14417,63,63706,1011.2063492063492
Emmanuel Baptist Rescue Mission,34.04351,-118.2431,530,E 5th St,Los Angeles,CA,Los Angeles City & County CoC,90013,https://www.homelessshelterdirectory.org/cgi-bin/id/shelter.cgi?shelter=10395,63,63706,1011.2063492063492
Los Angeles Mission,34.0449,-118.24543,303,E 5th St,Los Angeles,CA,Los Angeles City & County CoC,90013,https://www.homelessshelterdirectory.org/cgi-bin/id/shelter.cgi?shelter=12684,63,63706,1011.2063492063492
Union Rescue Mission,34.04311,-118.24486,545,S San Pedro St,Los Angeles,CA,Los Angeles City & County CoC,90013,https://www.homelessshelterdirectory.org/cgi-bin/id/shelter.cgi?shelter=10360,63,63706,1011.2063492063492
The Midnight Mission,34.04226,-118.2455,601,S San Pedro St,Los Angeles,CA,Los Angeles City & County CoC,90014,https://www.homelessshelterdirectory.org/cgi-bin/id/shelter.cgi?shelter=13539,63,63706,1011.2063492063492
Zahn Memorial Center,34.04652,-118.26411,832,W James M Wood Blvd,Los Angeles,CA,Los Angeles City & County CoC,90015,https://www.homelessshelterdirectory.org/cgi-bin/id/shelter.cgi?shelter=15575,63,63706,1011.2063492063492
The People Concern,34.03746,-118.317522,2116,Arlington Ave,Los Angeles,CA,Los Angeles City & County CoC,90018,https://www.homelessshelterdirectory.org/cgi-bin/id/shelter.cgi?shelter=11246,63,63706,1011.2063492063492
Friends Helping Friends LA Transitional Housing,34.019913,-118.329164,3701,Cherrywood Ave,Los Angeles,CA,Los Angeles City & County CoC,90018,https://www.homelessshelterdirectory.org/cgi-bin/id/shelter.cgi?shelter=11661,63,63706,1011.2063492063492
Salvation Army Westwood Transitional Village,34.0513,-118.44774,1401,S Sepulveda Blvd,Los Angeles,CA,Los Angeles City & County CoC,90025,https://www.homelessshelterdirectory.org/cgi-bin/id/shelter.cgi?shelter=11248,63,63706,1011.2063492063492
PATH Hollywood,34.096065,-118.311933,5627,Fernwood Ave,Los Angeles,CA,Los Angeles City & County CoC,90028,https://www.homelessshelterdirectory.org/cgi-bin/id/shelter.cgi?shelter=11710,63,63706,1011.2063492063492
Salvation Army The Way In Drop In Shelter For Youth,34.101863,-118.319256,5939,Hollywood Blvd,Los Angeles,CA,Los Angeles City & County CoC,90028,https://www.homelessshelterdirectory.org/cgi-bin/id/shelter.cgi?shelter=9715,63,63706,1011.2063492063492
Dolores Mission,34.046652,-118.223081,171,S Gless St,Los Angeles,CA,Los Angeles City & County CoC,90033,https://www.homelessshelterdirectory.org/cgi-bin/id/shelter.cgi?shelter=14420,63,63706,1011.2063492063492
Good Seed Shelter Los Angeles,33.979452,-118.322467,6568,5th Ave,Los Angeles,CA,Los Angeles City & County CoC,90043,https://www.homelessshelterdirectory.org/cgi-bin/id/shelter.cgi?shelter=15873,63,63706,1011.2063492063492
City of Refuge Rescue Mission Personal Good Service,33.96021,-118.28777,823,W Manchester Ave,Los Angeles,CA,Los Angeles City & County CoC,90044,https://www.homelessshelterdirectory.org/cgi-bin/id/shelter.cgi?shelter=11243,63,63706,1011.2063492063492
Casa Azul Shelter,34.06197,-118.27094,1920,W 3rd St,Los Angeles,CA,Los Angeles City & County CoC,90057,https://www.homelessshelterdirectory.org/cgi-bin/id/shelter.cgi?shelter=15864,63,63706,1011.2063492063492
Angel's Flight Youth Shelter,34.06094,-118.27265,357,S Westlake Ave,Los Angeles,CA,Los Angeles City & County CoC,90057,https://www.homelessshelterdirectory.org/cgi-bin/id/shelter.cgi?shelter=15532,63,63706,1011.2063492063492
Good Shepherd Center for Homeless Women,34.065185,-118.264669,1650,Rockwood St,Los Angeles,CA,Los Angeles City & County CoC,90026,https://www.homelessshelterdirectory.org/cgi-bin/id/shelter.cgi?shelter=10210,63,63706,1011.2063492063492
A Bridge Home Imperial,33.92921,-118.23095,2316,E Imperial Hwy,Los Angeles,CA,Los Angeles City & County CoC,90059,https://www.homelessshelterdirectory.org/cgi-bin/id/shelter.cgi?shelter=15904,63,63706,1011.2063492063492
New Directions Oasis for Veteran Women,34.054767,-118.453846,11303,Wilshire Blvd,Los Angeles,CA,Los Angeles City & County CoC,90073,https://www.homelessshelterdirectory.org/cgi-bin/id/shelter.cgi?shelter=11241,63,63706,1011.2063492063492
Shields for Families,33.927163,-118.228587,11705,Deputy Yamamoto Pl,Lynwood,CA,Los Angeles City & County CoC,90262,https://www.homelessshelterdirectory.org/cgi-bin/id/shelter.cgi?shelter=11219,63,63706,1011.2063492063492
Manteca Warming Center,37.787138,-121.211086,555,Industrial Park Dr,Manteca,CA,Stockton/San Joaquin County CoC,95337,https://www.homelessshelterdirectory.org/cgi-bin/id/shelter.cgi?shelter=20439,3,2677,892.3333333333334
Community Homeless Solutions,36.672544,-121.774959,3087,Wittenmyer Ct,Marina,CA,"Salinas/Monterey, San Benito Counties CoC",93933,https://www.homelessshelterdirectory.org/cgi-bin/id/shelter.cgi?shelter=14340,5,2683,536.6
"SHELTER, Inc. of Contra Costa",37.991661,-122.088867,1815,Arnold Dr,Martinez,CA,Richmond/Contra Costa County CoC,94553,https://www.homelessshelterdirectory.org/cgi-bin/id/shelter.cgi?shelter=7871,16,2277,142.3125
SAFE Place,38.012661,-122.121016,2244,Pacheco Blvd,Martinez,CA,Richmond/Contra Costa County CoC,94553,https://www.homelessshelterdirectory.org/cgi-bin/id/shelter.cgi?shelter=7928,16,2277,142.3125
Life Moves | Haven Family House,37.476273,-122.169216,260,Van Buren Rd,Menlo Park,CA,Daly/San Mateo County CoC,94025,https://www.homelessshelterdirectory.org/cgi-bin/id/shelter.cgi?shelter=12136,13,1572,120.92307692307692
American Family Housing,33.74242,-117.988003,15161,Jackson St,Midway City,CA,"Santa Ana, Anaheim/Orange County CoC",92655,https://www.homelessshelterdirectory.org/cgi-bin/id/shelter.cgi?shelter=15267,27,6978,258.44444444444446
Salvation Army Berberian Homeless Shelter and Transitional Living Center,37.633907,-120.993964,320,9th St,Modesto,CA,"Turlock, Modesto/Stanislaus County CoC",95350,https://www.homelessshelterdirectory.org/cgi-bin/id/shelter.cgi?shelter=13794,8,2107,263.375
Modesto Gospel Mission,37.637715,-120.972743,1400,Yosemite Blvd,Modesto,CA,"Turlock, Modesto/Stanislaus County CoC",95354,https://www.homelessshelterdirectory.org/cgi-bin/id/shelter.cgi?shelter=10530,8,2107,263.375
Hutton House,37.638467,-120.987231,201,Jennie St,Modesto,CA,"Turlock, Modesto/Stanislaus County CoC",95354,https://www.homelessshelterdirectory.org/cgi-bin/id/shelter.cgi?shelter=10532,8,2107,263.375
Haven Women's Center,37.639526,-120.993184,618,13th St,Modesto,CA,"Turlock, Modesto/Stanislaus County CoC",95354,https://www.homelessshelterdirectory.org/cgi-bin/id/shelter.cgi?shelter=10531,8,2107,263.375
Community Housing & Shelter Services,37.636532,-121.000256,708,H St,Modesto,CA,"Turlock, Modesto/Stanislaus County CoC",95354,https://www.homelessshelterdirectory.org/cgi-bin/id/shelter.cgi?shelter=7339,8,2107,263.375
Family Promise of Greater Modesto,37.653208,-121.041794,2301,Woodland Ave,Modesto,CA,"Turlock, Modesto/Stanislaus County CoC",95358,https://www.homelessshelterdirectory.org/cgi-bin/id/shelter.cgi?shelter=12328,8,2107,263.375
Community Solutions Transitional Housing Program (THP),37.117779,-121.6425,16264,Church St,Morgan Hill,CA,San Jose/Santa Clara City & County CoC,95037,https://www.homelessshelterdirectory.org/cgi-bin/id/shelter.cgi?shelter=7348,22,9605,436.59090909090907
Graduate House Shelter Lifemoves,37.380185,-122.066992,813,Alice Ave,Mountain View,CA,San Jose/Santa Clara City & County CoC,94041,https://www.homelessshelterdirectory.org/cgi-bin/id/shelter.cgi?shelter=14312,22,9605,436.59090909090907
The Salvation Army Napa,38.294642,-122.28696,590,Franklin St,Napa,CA,Napa City & County CoC,94559,https://www.homelessshelterdirectory.org/cgi-bin/id/shelter.cgi?shelter=14019,2,464,232.0
South Napa Shelter,38.283615,-122.279587,100,Hartle Ct,Napa,CA,Napa City & County CoC,94559,https://www.homelessshelterdirectory.org/cgi-bin/id/shelter.cgi?shelter=14414,2,464,232.0
Second Chance Newark CA,37.5341,-122.032309,6330,Thornton Ave,Newark,CA,"Oakland, Berkeley/Alameda County CoC",94560,https://www.homelessshelterdirectory.org/cgi-bin/id/shelter.cgi?shelter=14594,22,8137,369.8636363636364
A Better Living Permanent Housing and Supportive Services,34.24755,-118.46542,9733,N Columbus Ave,North Hills,CA,Los Angeles City & County CoC,91343,https://www.homelessshelterdirectory.org/cgi-bin/id/shelter.cgi?shelter=15124,63,63706,1011.2063492063492
LAFH,34.213355,-118.388056,7843,Lankershim Blvd,North Hollywood,CA,Los Angeles City & County CoC,91605,https://www.homelessshelterdirectory.org/cgi-bin/id/shelter.cgi?shelter=14416,63,63706,1011.2063492063492
Home Again Shelter,34.229875,-118.534665,8740,Canby Ave,Northridge,CA,Los Angeles City & County CoC,91325,https://www.homelessshelterdirectory.org/cgi-bin/id/shelter.cgi?shelter=14529,63,63706,1011.2063492063492
San Fernando Valley Rescue Mission,34.230292,-118.534668,8756,Canby Ave,Northridge,CA,Los Angeles City & County CoC,91325,https://www.homelessshelterdirectory.org/cgi-bin/id/shelter.cgi?shelter=15852,63,63706,1011.2063492063492
24,37.770622,-122.210436,4700,International Blvd,Oakland,CA,"Oakland, Berkeley/Alameda County CoC",94601,https://www.homelessshelterdirectory.org/cgi-bin/id/shelter.cgi?shelter=7079,22,8137,369.8636363636364
CityTeam Ministries Oakland,37.800273,-122.274945,722,Washington St,Oakland,CA,"Oakland, Berkeley/Alameda County CoC",94607,https://www.homelessshelterdirectory.org/cgi-bin/id/shelter.cgi?shelter=10547,22,8137,369.8636363636364
Interfaith Community Services Coastal Service Center,33.245912,-117.309322,4700,N River Rd N,Oceanside,CA,San Diego City and County CoC,92057,https://www.homelessshelterdirectory.org/cgi-bin/id/shelter.cgi?shelter=14666,23,7638,332.0869565217391
Catholic Charities Ontario,34.055491,-117.636297,904,E California St,Ontario,CA,San Bernardino City & County CoC,91761,https://www.homelessshelterdirectory.org/cgi-bin/id/shelter.cgi?shelter=14597,14,3125,223.21428571428572
Oroville Rescue Mission Men's Shelter,39.491258,-121.551397,4250,Lincoln Blvd,Oroville,CA,"Chico, Paradise/Butte County CoC",95966,https://www.homelessshelterdirectory.org/cgi-bin/id/shelter.cgi?shelter=14670,6,1274,212.33333333333334
Oroville Rescue Mission Women's Shelter,39.491258,-121.551397,4250,Lincoln Blvd,Oroville,CA,"Chico, Paradise/Butte County CoC",95966,https://www.homelessshelterdirectory.org/cgi-bin/id/shelter.cgi?shelter=14671,6,1274,212.33333333333334
Ventura County Rescue Mission,34.196048,-119.175212,234,E 6th St,Oxnard,CA,"Oxnard, San Buenaventura/Ventura County CoC",93030,https://www.homelessshelterdirectory.org/cgi-bin/id/shelter.cgi?shelter=10490,6,1787,297.8333333333333
Lighthouse for Women & Children,34.203874,-119.175068,150,N Hayes Ave,Oxnard,CA,"Oxnard, San Buenaventura/Ventura County CoC",93030,https://www.homelessshelterdirectory.org/cgi-bin/id/shelter.cgi?shelter=15576,6,1787,297.8333333333333
Pacifica Resource Center,37.634959,-122.491781,1809,Palmetto Ave,Pacifica,CA,Daly/San Mateo County CoC,94044,https://www.homelessshelterdirectory.org/cgi-bin/id/shelter.cgi?shelter=12145,13,1572,120.92307692307692
Mary Stuart Rogers Center,33.722264,-116.381827,73,Alessandro Dr,Palm Desert,CA,Riverside City & County CoC,92260,https://www.homelessshelterdirectory.org/cgi-bin/id/shelter.cgi?shelter=14361,12,2884,240.33333333333334
Palo Alto Opportunity Center,37.439309,-122.160987,33,Encina Ave,Palo Alto,CA,San Jose/Santa Clara City & County CoC,94301,https://www.homelessshelterdirectory.org/cgi-bin/id/shelter.cgi?shelter=7862,22,9605,436.59090909090907
The Opportunity Center,37.427644,-122.138215,2507,Alma St,Palo Alto,CA,San Jose/Santa Clara City & County CoC,94301,https://www.homelessshelterdirectory.org/cgi-bin/id/shelter.cgi?shelter=7349,22,9605,436.59090909090907
The Celebration House,39.704570,-121.812690,101,Skyway Ave,Paradise,CA,"Chico, Paradise/Butte County CoC",95966,https://www.homelessshelterdirectory.org/cgi-bin/id/shelter.cgi?shelter=15178,6,1274,212.33333333333334
Union Station Homeless Services,34.158461,-118.133491,825,E Orange Grove Blvd,Pasadena,CA,Pasadena CoC,91104,https://www.homelessshelterdirectory.org/cgi-bin/id/shelter.cgi?shelter=10852,7,527,75.28571428571429
Euclid Villa Transitional Apartments,34.143125,-118.142477,154,S Euclid Ave,Pasadena,CA,Pasadena CoC,91101,https://www.homelessshelterdirectory.org/cgi-bin/id/shelter.cgi?shelter=11226,7,527,75.28571428571429
Centennial Place Permanent Housing,34.148079,-118.145554,235,E Holly St,Pasadena,CA,Pasadena CoC,91101,https://www.homelessshelterdirectory.org/cgi-bin/id/shelter.cgi?shelter=11227,7,527,75.28571428571429
HPRP Pasadena Homeless Services,34.156827,-118.151582,649,N Fair Oaks Ave,Pasadena,CA,Pasadena CoC,91103,https://www.homelessshelterdirectory.org/cgi-bin/id/shelter.cgi?shelter=11230,7,527,75.28571428571429
Back To Life Community Living House Transitional Housing,34.168943,-118.156544,280,W Washington Blvd,Pasadena,CA,Pasadena CoC,91103,https://www.homelessshelterdirectory.org/cgi-bin/id/shelter.cgi?shelter=11638,7,527,75.28571428571429
ABL My Family House,34.16959,-118.152614,1385,El Sereno Ave,Pasadena,CA,Pasadena CoC,91103,https://www.homelessshelterdirectory.org/cgi-bin/id/shelter.cgi?shelter=15024,7,527,75.28571428571429
Homeless Adult Center,34.138665,-118.148193,412,S Raymond Ave,Pasadena,CA,Pasadena CoC,91105,https://www.homelessshelterdirectory.org/cgi-bin/id/shelter.cgi?shelter=11225,7,527,75.28571428571429
H.O.S.T. (Helping Others Sleep Tonight),37.465975,-121.128216,405,S 4th St,Patterson,CA,"Turlock, Modesto/Stanislaus County CoC",95363,https://www.homelessshelterdirectory.org/cgi-bin/id/shelter.cgi?shelter=14097,8,2107,263.375
Community Resource Center Puente,37.256566,-122.378084,620,North St,Pescadero,CA,Daly/San Mateo County CoC,94060,https://www.homelessshelterdirectory.org/cgi-bin/id/shelter.cgi?shelter=12146,13,1572,120.92307692307692
COTS Family Center Petaluma,38.226522,-122.619762,1500,Petaluma Blvd S,Petaluma,CA,"Santa Rosa, Petaluma/Sonoma County CoC",94952,https://www.homelessshelterdirectory.org/cgi-bin/id/shelter.cgi?shelter=14424,11,2745,249.54545454545453
COTS Mary Isaak Center,38.233652,-122.623229,900,Hopper St,Petaluma,CA,"Santa Rosa, Petaluma/Sonoma County CoC",94952,https://www.homelessshelterdirectory.org/cgi-bin/id/shelter.cgi?shelter=10282,11,2745,249.54545454545453
H.I.S. House (Homeless Intervention  Shelter),33.880232,-117.868496,907,N Bradford Ave,Placentia,CA,"Santa Ana, Anaheim/Orange County CoC",92870,https://www.homelessshelterdirectory.org/cgi-bin/id/shelter.cgi?shelter=15264,27,6978,258.44444444444446
Inland Valley Hope Partners,34.077452,-117.752935,1753,N Park Ave,Pomona,CA,Los Angeles City & County CoC,91768,https://www.homelessshelterdirectory.org/cgi-bin/id/shelter.cgi?shelter=14599,63,63706,1011.2063492063492
Porterville CA Womens Shelter,36.07979,-119.019147,770,N Main St,Porterville,CA,"Visalia/Kings, Tulare Counties CoC",93257,https://www.homelessshelterdirectory.org/cgi-bin/id/shelter.cgi?shelter=12667,6,1297,216.16666666666666
Rancho Cordova HART,38.624408,-121.267252,11223,Trinity River Dr,Rancho Cordova,CA,Sacramento City & County CoC,95670,https://www.homelessshelterdirectory.org/cgi-bin/id/shelter.cgi?shelter=15489,8,5511,688.875
P.A.T.H. Homeless Outreach Center,40.186878,-122.211434,440,Antelope Blvd,Red Bluff,CA,Tehama County CoC,96080,https://www.homelessshelterdirectory.org/cgi-bin/id/shelter.cgi?shelter=15154,1,300,300.0
Good News Rescue Mission,40.570026,-122.38832,2842,S Market St,Redding,CA,"Redding/Shasta, Siskiyou, Lassen, Plumas, Del Norte, Modoc, Sierra Counties CoC",96001,https://www.homelessshelterdirectory.org/cgi-bin/id/shelter.cgi?shelter=10435,2,1529,764.5
Our House Youth Shelter,34.061271,-117.168709,940,Stillman Ave,Redlands,CA,San Bernardino City & County CoC,92374,https://www.homelessshelterdirectory.org/cgi-bin/id/shelter.cgi?shelter=12528,14,3125,223.21428571428572
Salvation Army Cold Weather Shelter,34.063864,-117.181094,838,Alta St,Redlands,CA,San Bernardino City & County CoC,92374,https://www.homelessshelterdirectory.org/cgi-bin/id/shelter.cgi?shelter=13968,14,3125,223.21428571428572
Shelter Network Redwood City,37.472139,-122.221722,110,Locust St,Redwood City,CA,Daly/San Mateo County CoC,94061,https://www.homelessshelterdirectory.org/cgi-bin/id/shelter.cgi?shelter=8029,13,1572,120.92307692307692
GRIP Family Housing Program,37.933408,-122.348898,165,22nd St,Richmond,CA,Richmond/Contra Costa County CoC,94801,https://www.homelessshelterdirectory.org/cgi-bin/id/shelter.cgi?shelter=7491,16,2277,142.3125
Bay Area Rescue Mission,37.935546,-122.367435,224,Macdonald Ave,Richmond,CA,Richmond/Contra Costa County CoC,94801,https://www.homelessshelterdirectory.org/cgi-bin/id/shelter.cgi?shelter=7163,16,2277,142.3125
Bay Area Rescue Mission,37.935431,-122.367276,200,Macdonald Ave,Richmond,CA,Richmond/Contra Costa County CoC,94801,https://www.homelessshelterdirectory.org/cgi-bin/id/shelter.cgi?shelter=7162,16,2277,142.3125
Brookside Shelter,37.96531,-122.358991,847,Brookside Dr,Richmond,CA,Richmond/Contra Costa County CoC,94801,https://www.homelessshelterdirectory.org/cgi-bin/id/shelter.cgi?shelter=8219,16,2277,142.3125
Nevin House,37.935761,-122.3379,3215,Nevin Ave,Richmond,CA,Richmond/Contra Costa County CoC,94804,https://www.homelessshelterdirectory.org/cgi-bin/id/shelter.cgi?shelter=7793,16,2277,142.3125
Women's Center,35.62129,-117.669552,134,S China Lake Blvd,Ridgecrest,CA,Bakersfield/Kern County CoC,93555,https://www.homelessshelterdirectory.org/cgi-bin/id/shelter.cgi?shelter=13769,5,1580,316.0
Community Shelter Program Riverside,33.987246,-117.353627,2840,Hulen Pl,Riverside,CA,Riverside City & County CoC,92507,https://www.homelessshelterdirectory.org/cgi-bin/id/shelter.cgi?shelter=14875,12,2884,240.33333333333334
Path of Life Ministries Family Shelter,33.982574,-117.362203,2530,3rd St,Riverside,CA,Riverside City & County CoC,92507,https://www.homelessshelterdirectory.org/cgi-bin/id/shelter.cgi?shelter=11816,12,2884,240.33333333333334
Francis House Center Family Shelter,38.581562,-121.485734,1422,C St,Sacramento,CA,Sacramento City & County CoC,95814,https://www.homelessshelterdirectory.org/cgi-bin/id/shelter.cgi?shelter=15170,8,5511,688.875
Salvation Army Shelter Emergency Lodge Sacramento,38.590042,-121.485697,1200,N B St,Sacramento,CA,Sacramento City & County CoC,95811,https://www.homelessshelterdirectory.org/cgi-bin/id/shelter.cgi?shelter=14573,8,5511,688.875
Sacramento Loaves & Fishes,38.590991,-121.482577,1351,N C St,Sacramento,CA,Sacramento City & County CoC,95811,https://www.homelessshelterdirectory.org/cgi-bin/id/shelter.cgi?shelter=15828,8,5511,688.875
Union Gospel Mission,38.595423,-121.497815,400,Bannon St,Sacramento,CA,Sacramento City & County CoC,95811,https://www.homelessshelterdirectory.org/cgi-bin/id/shelter.cgi?shelter=9973,8,5511,688.875
Volunteers of America,38.599633,-121.431487,1900,Point West Way,Sacramento,CA,Sacramento City & County CoC,95815,https://www.homelessshelterdirectory.org/cgi-bin/id/shelter.cgi?shelter=9505,8,5511,688.875
Next Move Sacramento Area Emergency Housing Center,38.534801,-121.453645,4516,Parker Ave,Sacramento,CA,Sacramento City & County CoC,95820,https://www.homelessshelterdirectory.org/cgi-bin/id/shelter.cgi?shelter=14572,8,5511,688.875
Volunteers of America Housing and Shelter Services Sacramento,38.617452,-121.384423,3434,Marconi Ave,Sacramento,CA,Sacramento City & County CoC,95821,https://www.homelessshelterdirectory.org/cgi-bin/id/shelter.cgi?shelter=10056,8,5511,688.875
"Victory Mission, Inc.",36.678371,-121.652022,43,Soledad St,Salinas,CA,"Salinas/Monterey, San Benito Counties CoC",93901,https://www.homelessshelterdirectory.org/cgi-bin/id/shelter.cgi?shelter=15316,5,2683,536.6
Visionary Homes,34.148959,-117.284698,3171,N Sierra Way,San Bernardino,CA,San Bernardino City & County CoC,92405,https://www.homelessshelterdirectory.org/cgi-bin/id/shelter.cgi?shelter=12919,14,3125,223.21428571428572
Time for Change Foundation for Homeless Women and Children,34.135323,-117.287756,2164,N Mountain View Ave,San Bernardino,CA,San Bernardino City & County CoC,92405,https://www.homelessshelterdirectory.org/cgi-bin/id/shelter.cgi?shelter=11947,14,3125,223.21428571428572
Central City Lutheran Mission,34.124486,-117.299245,1354,N G St,San Bernardino,CA,San Bernardino City & County CoC,92405,https://www.homelessshelterdirectory.org/cgi-bin/id/shelter.cgi?shelter=15369,14,3125,223.21428571428572
Operation Grace,34.101875,-117.251926,1595,E Art Townsend Dr,San Bernardino,CA,San Bernardino City & County CoC,92408,https://www.homelessshelterdirectory.org/cgi-bin/id/shelter.cgi?shelter=14201,14,3125,223.21428571428572
Veronica's Home of Mercy,34.110866,-117.318258,1495,W Victoria St,San Bernardino,CA,San Bernardino City & County CoC,92411,https://www.homelessshelterdirectory.org/cgi-bin/id/shelter.cgi?shelter=14598,14,3125,223.21428571428572
The Salvation Army South County Family Services,33.42435,-117.610298,616,S El Camino Real,San Clemente,CA,"Santa Ana, Anaheim/Orange County CoC",92672,https://www.homelessshelterdirectory.org/cgi-bin/id/shelter.cgi?shelter=8146,27,6978,258.44444444444446
Gilchrist House,33.452122,-117.606198,930,Calle Negocio,San Clemente,CA,"Santa Ana, Anaheim/Orange County CoC",92673,https://www.homelessshelterdirectory.org/cgi-bin/id/shelter.cgi?shelter=10115,27,6978,258.44444444444446
Father Joe's Villages San Diego Day Center,32.70822,-117.148394,299,17th St,San Diego,CA,San Diego City and County CoC,92101,https://www.homelessshelterdirectory.org/cgi-bin/id/shelter.cgi?shelter=11337,23,7638,332.0869565217391
Cortez Hill Family Center,32.720693,-117.156128,1449,9th Ave,San Diego,CA,San Diego City and County CoC,92101,https://www.homelessshelterdirectory.org/cgi-bin/id/shelter.cgi?shelter=11332,23,7638,332.0869565217391
San Diego Travelers Aid Society,32.705872,-117.149716,1501,Imperial Ave,San Diego,CA,San Diego City and County CoC,92101,https://www.homelessshelterdirectory.org/cgi-bin/id/shelter.cgi?shelter=11331,23,7638,332.0869565217391
Rachel's Night Shelter For Women,32.7133,-117.157186,759,8th Ave,San Diego,CA,San Diego City and County CoC,92101,https://www.homelessshelterdirectory.org/cgi-bin/id/shelter.cgi?shelter=11340,23,7638,332.0869565217391
Catholic Charities Diocese of San Diego,32.721796,-117.16147,349,Cedar St,San Diego,CA,San Diego City and County CoC,92101,https://www.homelessshelterdirectory.org/cgi-bin/id/shelter.cgi?shelter=10886,23,7638,332.0869565217391
Nueva Vida Haven Emergency Shelter for Women and Children,32.724492,-117.163637,120,Elm St,San Diego,CA,San Diego City and County CoC,92101,https://www.homelessshelterdirectory.org/cgi-bin/id/shelter.cgi?shelter=11329,23,7638,332.0869565217391
San Diego Rescue Mission Men's Center Long Term,32.724492,-117.163637,120,Elm St,San Diego,CA,San Diego City and County CoC,92101,https://www.homelessshelterdirectory.org/cgi-bin/id/shelter.cgi?shelter=11330,23,7638,332.0869565217391
St. Vincet de Paul Village,32.705872,-117.149716,1501,Imperial Ave,San Diego,CA,San Diego City and County CoC,92101,https://www.homelessshelterdirectory.org/cgi-bin/id/shelter.cgi?shelter=9710,23,7638,332.0869565217391
Urban Street Angels at Mission Gathering Church,32.751618,-117.107381,4090,Polk Ave,San Diego,CA,San Diego City and County CoC,92105,https://www.homelessshelterdirectory.org/cgi-bin/id/shelter.cgi?shelter=14943,23,7638,332.0869565217391
San Diego Residential Substance Abuse Recovery,32.747583,-117.128553,3806,Grim Ave,San Diego,CA,San Diego City and County CoC,92104,https://www.homelessshelterdirectory.org/cgi-bin/id/shelter.cgi?shelter=11335,23,7638,332.0869565217391
Residential Treatment Recovery Housing,32.747583,-117.128553,3806,Grim Ave,San Diego,CA,San Diego City and County CoC,92104,https://www.homelessshelterdirectory.org/cgi-bin/id/shelter.cgi?shelter=11334,23,7638,332.0869565217391
San Diego Maternity Shelter,32.766763,-117.138365,5005,Texas St,San Diego,CA,San Diego City and County CoC,92108,https://www.homelessshelterdirectory.org/cgi-bin/id/shelter.cgi?shelter=11325,23,7638,332.0869565217391
Community Housing Partnership,37.781455,-122.411801,20,Jones St,San Francisco,CA,San Francisco CoC,94102,https://www.homelessshelterdirectory.org/cgi-bin/id/shelter.cgi?shelter=7340,18,8124,451.3333333333333
Lark Inn,37.783673,-122.420498,869,Ellis St,San Francisco,CA,San Francisco CoC,94109,https://www.homelessshelterdirectory.org/cgi-bin/id/shelter.cgi?shelter=10042,18,8124,451.3333333333333
Tenderlion Housing Clinic,37.782196,-122.416494,449,Turk St,San Francisco,CA,San Francisco CoC,94102,https://www.homelessshelterdirectory.org/cgi-bin/id/shelter.cgi?shelter=8110,18,8124,451.3333333333333
Baker Places,37.77007,-122.407618,1000,Brannan St,San Francisco,CA,San Francisco CoC,94103,https://www.homelessshelterdirectory.org/cgi-bin/id/shelter.cgi?shelter=15169,18,8124,451.3333333333333
CityTeam San Francisco,37.77995,-122.407809,164,6th St,San Francisco,CA,San Francisco CoC,94103,https://www.homelessshelterdirectory.org/cgi-bin/id/shelter.cgi?shelter=10549,18,8124,451.3333333333333
W.O.M.A.N.,37.767687,-122.42169,333,Valencia St,San Francisco,CA,San Francisco CoC,94103,https://www.homelessshelterdirectory.org/cgi-bin/id/shelter.cgi?shelter=8207,18,8124,451.3333333333333
Episcopal Community Services,37.776917,-122.412297,165,8th St,San Francisco,CA,San Francisco CoC,94103,https://www.homelessshelterdirectory.org/cgi-bin/id/shelter.cgi?shelter=13275,18,8124,451.3333333333333
Compass Family Services,37.77861,-122.415956,37,Grove St,San Francisco,CA,San Francisco CoC,94102,https://www.homelessshelterdirectory.org/cgi-bin/id/shelter.cgi?shelter=7350,18,8124,451.3333333333333
La Casa de Las Madres,37.771147,-122.419191,1663,Mission St,San Francisco,CA,San Francisco CoC,94103,https://www.homelessshelterdirectory.org/cgi-bin/id/shelter.cgi?shelter=7686,18,8124,451.3333333333333
MSC Shelter,37.777612,-122.399845,525,5th St,San Francisco,CA,San Francisco CoC,94107,https://www.homelessshelterdirectory.org/cgi-bin/id/shelter.cgi?shelter=14936,18,8124,451.3333333333333
Raphael House,37.787763,-122.417695,1065,Sutter St,San Francisco,CA,San Francisco CoC,94109,https://www.homelessshelterdirectory.org/cgi-bin/id/shelter.cgi?shelter=7899,18,8124,451.3333333333333
Next Door Shelter,37.78616,-122.419941,1001,Polk St,San Francisco,CA,San Francisco CoC,94109,https://www.homelessshelterdirectory.org/cgi-bin/id/shelter.cgi?shelter=14364,18,8124,451.3333333333333
Mission Neighborhood Resource,37.764049,-122.418478,165,Capp St,San Francisco,CA,San Francisco CoC,94110,https://www.homelessshelterdirectory.org/cgi-bin/id/shelter.cgi?shelter=14938,18,8124,451.3333333333333
St Joseph's Family Center,37.756965,-122.423063,899,Guerrero St,San Francisco,CA,San Francisco CoC,94110,https://www.homelessshelterdirectory.org/cgi-bin/id/shelter.cgi?shelter=7538,18,8124,451.3333333333333
Asian Women's Shelter (AWS),37.76142,-122.422619,3543,18th St,San Francisco,CA,San Francisco CoC,94110,https://www.homelessshelterdirectory.org/cgi-bin/id/shelter.cgi?shelter=7140,18,8124,451.3333333333333
Diamond Youth Shelter,37.774724,-122.444225,536,Central Ave,San Francisco,CA,San Francisco CoC,94117,https://www.homelessshelterdirectory.org/cgi-bin/id/shelter.cgi?shelter=7390,18,8124,451.3333333333333
Providence Church Shelter,37.735809,-122.389619,1601,McKinnon Ave,San Francisco,CA,San Francisco CoC,94124,https://www.homelessshelterdirectory.org/cgi-bin/id/shelter.cgi?shelter=15168,18,8124,451.3333333333333
Holy Ghost Service Center,37.721147,-122.401252,3230,San Bruno Ave,San Francisco,CA,San Francisco CoC,94134,https://www.homelessshelterdirectory.org/cgi-bin/id/shelter.cgi?shelter=10269,18,8124,451.3333333333333
Family Promise of San Gabriel Valley,34.103751,-118.085848,1005,E Las Tunas Dr,San Gabriel,CA,Los Angeles City & County CoC,91776,https://www.homelessshelterdirectory.org/cgi-bin/id/shelter.cgi?shelter=15460,63,63706,1011.2063492063492
HomeFirst Boccardo Family Living Center,37.087753,-121.612502,13545,Monterey Rd,San Martin,CA,San Jose/Santa Clara City & County CoC,95046,https://www.homelessshelterdirectory.org/cgi-bin/id/shelter.cgi?shelter=7414,22,9605,436.59090909090907
Sacred Heart Community Services,37.316527,-121.874639,1381,S 1st St,San Jose,CA,San Jose/Santa Clara City & County CoC,95110,https://www.homelessshelterdirectory.org/cgi-bin/id/shelter.cgi?shelter=7939,22,9605,436.59090909090907
LifeMoves Montgomery Street Inn,37.336828,-121.904277,358,N Montgomery St,San Jose,CA,San Jose/Santa Clara City & County CoC,95110,https://www.homelessshelterdirectory.org/cgi-bin/id/shelter.cgi?shelter=7643,22,9605,436.59090909090907
Montgomery Street Inn Shelter,37.336828,-121.904277,358,N Montgomery St,San Jose,CA,San Jose/Santa Clara City & County CoC,95110,https://www.homelessshelterdirectory.org/cgi-bin/id/shelter.cgi?shelter=14415,22,9605,436.59090909090907
City Team Ministry Rescue Mission,37.365087,-121.89578,1297,N 13th St,San Jose,CA,San Jose/Santa Clara City & County CoC,95112,https://www.homelessshelterdirectory.org/cgi-bin/id/shelter.cgi?shelter=7314,22,9605,436.59090909090907
City Team Ministry Men's Shelter,37.364702,-121.89597,1174,Old Bayshore Hwy,San Jose,CA,San Jose/Santa Clara City & County CoC,95112,https://www.homelessshelterdirectory.org/cgi-bin/id/shelter.cgi?shelter=14669,22,9605,436.59090909090907
United States Mission Transitional Housing San Jose,37.331892,-121.88116,420,S 5th St,San Jose,CA,San Jose/Santa Clara City & County CoC,95112,https://www.homelessshelterdirectory.org/cgi-bin/id/shelter.cgi?shelter=11349,22,9605,436.59090909090907
Heritage Home Shelter,37.344227,-121.894144,435,N 3rd St,San Jose,CA,San Jose/Santa Clara City & County CoC,95112,https://www.homelessshelterdirectory.org/cgi-bin/id/shelter.cgi?shelter=10546,22,9605,436.59090909090907
Casa de Clara San Jose Catholic Worker,37.343653,-121.888498,318,N 6th St,San Jose,CA,San Jose/Santa Clara City & County CoC,95112,https://www.homelessshelterdirectory.org/cgi-bin/id/shelter.cgi?shelter=7238,22,9605,436.59090909090907
Salvation Army Emmanuel House,37.34403,-121.892668,405,N 4th St,San Jose,CA,San Jose/Santa Clara City & County CoC,95112,https://www.homelessshelterdirectory.org/cgi-bin/id/shelter.cgi?shelter=7953,22,9605,436.59090909090907
Next Door Solutions to Domestic Violence,37.359821,-121.904597,1181,N 4th St,San Jose,CA,San Jose/Santa Clara City & County CoC,95112,https://www.homelessshelterdirectory.org/cgi-bin/id/shelter.cgi?shelter=7810,22,9605,436.59090909090907
LifeMoves Georgia Travis Center,37.359965,-121.900748,260,Commercial St,San Jose,CA,San Jose/Santa Clara City & County CoC,95112,https://www.homelessshelterdirectory.org/cgi-bin/id/shelter.cgi?shelter=7644,22,9605,436.59090909090907
"County of Santa Clara, Office of Supportive Housing",37.273307,-121.880252,2310,N 1st St,San Jose,CA,San Jose/Santa Clara City & County CoC,95118,https://www.homelessshelterdirectory.org/cgi-bin/id/shelter.cgi?shelter=15769,22,9605,436.59090909090907
HomeFirst Program San Jose,37.303195,-121.871055,2011,Little Orchard St,San Jose,CA,San Jose/Santa Clara City & County CoC,95125,https://www.homelessshelterdirectory.org/cgi-bin/id/shelter.cgi?shelter=7413,22,9605,436.59090909090907
Asian Women's Home,37.316258,-121.935426,240,Moorpark Ave,San Jose,CA,San Jose/Santa Clara City & County CoC,95128,https://www.homelessshelterdirectory.org/cgi-bin/id/shelter.cgi?shelter=7139,22,9605,436.59090909090907
CityTeam Ministries San Jose,37.3839,-121.918191,2306,Zanker Rd,San Jose,CA,San Jose/Santa Clara City & County CoC,95131,https://www.homelessshelterdirectory.org/cgi-bin/id/shelter.cgi?shelter=10545,22,9605,436.59090909090907
Family Supportive Housing's San Jose Family Shelter,37.366361,-121.868319,692,N King Rd,San Jose,CA,San Jose/Santa Clara City & County CoC,95133,https://www.homelessshelterdirectory.org/cgi-bin/id/shelter.cgi?shelter=8005,22,9605,436.59090909090907
Midway Shelter of Alameda,37.726363,-122.147886,1395,Bancroft Ave,San Leandro,CA,"Oakland, Berkeley/Alameda County CoC",94577,https://www.homelessshelterdirectory.org/cgi-bin/id/shelter.cgi?shelter=8006,22,8137,369.8636363636364
40 Prado Road,35.256043,-120.672077,40,Prado Rd,San Luis Obispo,CA,San Luis Obispo County CoC,93401,https://www.homelessshelterdirectory.org/cgi-bin/id/shelter.cgi?shelter=15826,2,1423,711.5
LifeMoves First Step for Families,37.575518,-122.335484,325,Villa Ter,San Mateo,CA,Daly/San Mateo County CoC,94401,https://www.homelessshelterdirectory.org/cgi-bin/id/shelter.cgi?shelter=8030,13,1572,120.92307692307692
Society of Saint Vincent de Paul Homeless Help Center,37.568398,-122.325038,50,N B St,San Mateo,CA,Daly/San Mateo County CoC,94401,https://www.homelessshelterdirectory.org/cgi-bin/id/shelter.cgi?shelter=20420,13,1572,120.92307692307692
House of Hope Inc.,33.73589,-118.2821,235,W 9th St,San Pedro,CA,Los Angeles City & County CoC,90731,https://www.homelessshelterdirectory.org/cgi-bin/id/shelter.cgi?shelter=10192,63,63706,1011.2063492063492
Shawl House,33.73543,-118.28339,936,S Centre St,San Pedro,CA,Los Angeles City & County CoC,90731,https://www.homelessshelterdirectory.org/cgi-bin/id/shelter.cgi?shelter=14418,63,63706,1011.2063492063492
Harbor Rose Lodge,33.73132,-118.29221,1400,S Gaffey St,San Pedro,CA,Los Angeles City & County CoC,90731,https://www.homelessshelterdirectory.org/cgi-bin/id/shelter.cgi?shelter=11233,63,63706,1011.2063492063492
St Vincent De Paul Homeless Help Desk,37.971714,-122.529533,822,B St,San Rafael,CA,Marin County CoC,94901,https://www.homelessshelterdirectory.org/cgi-bin/id/shelter.cgi?shelter=14016,1,1032,1032.0
Santa Ana Hospitality House,33.746891,-117.859463,818,E 3rd St,Santa Ana,CA,"Santa Ana, Anaheim/Orange County CoC",92701,https://www.homelessshelterdirectory.org/cgi-bin/id/shelter.cgi?shelter=13790,27,6978,258.44444444444446
Orange County Catholic Worker,33.742813,-117.866744,316,S Cypress Ave,Santa Ana,CA,"Santa Ana, Anaheim/Orange County CoC",92701,https://www.homelessshelterdirectory.org/cgi-bin/id/shelter.cgi?shelter=15272,27,6978,258.44444444444446
Grandma's House of Hope,33.760245,-117.846949,206,N State College Blvd,Santa Ana,CA,"Santa Ana, Anaheim/Orange County CoC",92705,https://www.homelessshelterdirectory.org/shelter/ca_grandmas-house-of-hope,27,6978,258.44444444444446
Grandma's House of Hope,33.760245,-117.846949,206,N State College Blvd,Santa Ana,CA,"Santa Ana, Anaheim/Orange County CoC",92705,https://www.homelessshelterdirectory.org/shelter/ca_grandmas-house-of-hope,27,6978,258.44444444444446
WISEPlace,33.757167,-117.86906,1411,N Broadway,Santa Ana,CA,"Santa Ana, Anaheim/Orange County CoC",92706,https://www.homelessshelterdirectory.org/cgi-bin/id/shelter.cgi?shelter=15261,27,6978,258.44444444444446
Santa Ana Armory Cold Weather Shelter,33.715082,-117.862104,612,E Warner Ave,Santa Ana,CA,"Santa Ana, Anaheim/Orange County CoC",92707,https://www.homelessshelterdirectory.org/cgi-bin/id/shelter.cgi?shelter=15270,27,6978,258.44444444444446
Transition House,34.422344,-119.692135,425,E Cota St,Santa Barbara,CA,Santa Maria/Santa Barbara County CoC,93101,https://www.homelessshelterdirectory.org/cgi-bin/id/shelter.cgi?shelter=8157,9,1897,210.77777777777777
Santa Barbara Hospitality House,34.414877,-119.695678,423,Chapala St,Santa Barbara,CA,Santa Maria/Santa Barbara County CoC,93101,https://www.homelessshelterdirectory.org/cgi-bin/id/shelter.cgi?shelter=13789,9,1897,210.77777777777777
Casa Esperanza,34.418905,-119.676574,816,Cacique St,Santa Barbara,CA,Santa Maria/Santa Barbara County CoC,93103,https://www.homelessshelterdirectory.org/cgi-bin/id/shelter.cgi?shelter=13388,9,1897,210.77777777777777
Santa Barbara Casa Esperanza Homeless Center,34.418905,-119.676574,816,Cacique St,Santa Barbara,CA,Santa Maria/Santa Barbara County CoC,93103,https://www.homelessshelterdirectory.org/cgi-bin/id/shelter.cgi?shelter=14583,9,1897,210.77777777777777
Santa Barbara Rescue Mission,34.419223,-119.684404,535,E Yanonali St,Santa Barbara,CA,Santa Maria/Santa Barbara County CoC,93103,https://www.homelessshelterdirectory.org/cgi-bin/id/shelter.cgi?shelter=14582,9,1897,210.77777777777777
Bridge to Home Homeless Shelter,34.41123,-118.540487,23031,Drayton St,Santa Clarita,CA,Los Angeles City & County CoC,91350,https://www.homelessshelterdirectory.org/cgi-bin/id/shelter.cgi?shelter=14732,63,63706,1011.2063492063492
Homeless Services Center,36.984846,-122.030474,115,Coral St,Santa Cruz,CA,Watsonville/Santa Cruz City & County CoC,95060,https://www.homelessshelterdirectory.org/cgi-bin/id/shelter.cgi?shelter=7602,3,2256,752.0
Central Coast Rescue Mission Substance Abuse And Homeless Services,34.964246,-120.433526,1207,N McClelland St,Santa Maria,CA,Santa Maria/Santa Barbara County CoC,93454,https://www.homelessshelterdirectory.org/cgi-bin/id/shelter.cgi?shelter=11373,9,1897,210.77777777777777
Santa Maria Emergency Shelter Campus,34.943892,-120.441023,401,W Morrison Ave,Santa Maria,CA,Santa Maria/Santa Barbara County CoC,93458,https://www.homelessshelterdirectory.org/cgi-bin/id/shelter.cgi?shelter=14581,9,1897,210.77777777777777
The People Concern Access Center,34.013654,-118.489091,505,Olympic Blvd,Santa Monica,CA,Los Angeles City & County CoC,90401,https://www.homelessshelterdirectory.org/cgi-bin/id/shelter.cgi?shelter=14419,63,63706,1011.2063492063492
Harvest Home,34.032125,-118.482017,2118,Wilshire Blvd,Santa Monica,CA,Los Angeles City & County CoC,90403,https://www.homelessshelterdirectory.org/cgi-bin/id/shelter.cgi?shelter=15008,63,63706,1011.2063492063492
SPIRIT of Santa Paula Drop In Center,34.354233,-119.061046,113,N Mill St,Santa Paula,CA,"Oxnard, San Buenaventura/Ventura County CoC",93060,https://www.homelessshelterdirectory.org/cgi-bin/id/shelter.cgi?shelter=15569,6,1787,297.8333333333333
Redwood Gospel Mission Rescue Mission,38.438998,-122.721541,101,6th St,Santa Rosa,CA,"Santa Rosa, Petaluma/Sonoma County CoC",95401,https://www.homelessshelterdirectory.org/cgi-bin/id/shelter.cgi?shelter=10782,11,2745,249.54545454545453
Catholic Charities Homeless Services Center,38.440732,-122.719603,600,Morgan St,Santa Rosa,CA,"Santa Rosa, Petaluma/Sonoma County CoC",95401,https://www.homelessshelterdirectory.org/cgi-bin/id/shelter.cgi?shelter=10780,11,2745,249.54545454545453
Family Support Center,38.440976,-122.719124,465,A St,Santa Rosa,CA,"Santa Rosa, Petaluma/Sonoma County CoC",95401,https://www.homelessshelterdirectory.org/cgi-bin/id/shelter.cgi?shelter=15979,11,2745,249.54545454545453
The SAY Dream Center For Youths,38.475598,-122.737462,3440,Airway Dr,Santa Rosa,CA,"Santa Rosa, Petaluma/Sonoma County CoC",95403,https://www.homelessshelterdirectory.org/cgi-bin/id/shelter.cgi?shelter=14017,11,2745,249.54545454545453
The Rose,38.438998,-122.721541,101,6th St,Santa Rosa,CA,"Santa Rosa, Petaluma/Sonoma County CoC",95401,https://www.homelessshelterdirectory.org/cgi-bin/id/shelter.cgi?shelter=10281,11,2745,249.54545454545453
The Living Room Day Shelter For Women,38.447286,-122.726868,1207,Cleveland Ave,Santa Rosa,CA,"Santa Rosa, Petaluma/Sonoma County CoC",95401,https://www.homelessshelterdirectory.org/cgi-bin/id/shelter.cgi?shelter=14015,11,2745,249.54545454545453
Community Support Network Opportunity House,38.427832,-122.70928,634,Pressley St,Santa Rosa,CA,"Santa Rosa, Petaluma/Sonoma County CoC",95404,https://www.homelessshelterdirectory.org/cgi-bin/id/shelter.cgi?shelter=10781,11,2745,249.54545454545453
InterFaith Shelter Network,38.434222,-122.691591,2455,Bennett Valley Rd,Santa Rosa,CA,"Santa Rosa, Petaluma/Sonoma County CoC",95404,https://www.homelessshelterdirectory.org/cgi-bin/id/shelter.cgi?shelter=15980,11,2745,249.54545454545453
Santee Food Bank,32.854809,-116.9929,9715,Halberns Blvd,Santee,CA,San Diego City and County CoC,92071,https://www.homelessshelterdirectory.org/cgi-bin/id/shelter.cgi?shelter=20428,23,7638,332.0869565217391
Safe Harbor Shelter,37.639033,-122.394187,295,N Access Rd,South San Francisco,CA,Daly/San Mateo County CoC,94080,https://www.homelessshelterdirectory.org/cgi-bin/id/shelter.cgi?shelter=15496,13,1572,120.92307692307692
Illumination Foundation Stanton Multi,33.803155,-117.995696,7855,Katella Ave,Stanton,CA,"Santa Ana, Anaheim/Orange County CoC",90680,https://www.homelessshelterdirectory.org/cgi-bin/id/shelter.cgi?shelter=15394,27,6978,258.44444444444446
Stockton Shelter for the Homeless,37.947028,-121.297895,411,S Harrison St,Stockton,CA,Stockton/San Joaquin County CoC,95203,https://www.homelessshelterdirectory.org/cgi-bin/id/shelter.cgi?shelter=14093,3,2677,892.3333333333334
Hope of the Valley Rescue Mission,34.218661,-118.368673,8165,San Fernando Rd,Sun Valley,CA,Los Angeles City & County CoC,91352,https://www.homelessshelterdirectory.org/cgi-bin/id/shelter.cgi?shelter=14713,63,63706,1011.2063492063492
Community House Sylmar,34.310645,-118.432993,13770,Sayre St,Sylmar,CA,Los Angeles City & County CoC,91342,https://www.homelessshelterdirectory.org/cgi-bin/id/shelter.cgi?shelter=15725,63,63706,1011.2063492063492
Project TOUCH,33.510726,-117.140305,42036,Moraga Rd,Temecula,CA,Riverside City & County CoC,92591,https://www.homelessshelterdirectory.org/cgi-bin/id/shelter.cgi?shelter=15361,12,2884,240.33333333333334
Temecula Murrieta Rescue Mission,33.528618,-117.15935,40810,County Center Dr,Temecula,CA,Riverside City & County CoC,92591,https://www.homelessshelterdirectory.org/cgi-bin/id/shelter.cgi?shelter=20324,12,2884,240.33333333333334
Emerson House,37.748553,-121.426512,26,W Emerson Ave,Tracy,CA,Stockton/San Joaquin County CoC,95376,https://www.homelessshelterdirectory.org/cgi-bin/id/shelter.cgi?shelter=13105,3,2677,892.3333333333334
Lighthouse Rescue Mission Women and Children Shelter,36.206118,-119.348984,111,W Kern Ave,Tulare,CA,"Visalia/Kings, Tulare Counties CoC",93274,https://www.homelessshelterdirectory.org/cgi-bin/id/shelter.cgi?shelter=13772,6,1297,216.16666666666666
Turlock Gospel Mission Shelter,37.492427,-120.840683,1030,East Ave,Turlock,CA,"Turlock, Modesto/Stanislaus County CoC",95380,https://www.homelessshelterdirectory.org/cgi-bin/id/shelter.cgi?shelter=14063,8,2107,263.375
Orange County Rescue Mission,33.745469,-117.830637,,One Hope Dr,Tustin,CA,"Santa Ana, Anaheim/Orange County CoC",92780,https://www.homelessshelterdirectory.org/cgi-bin/id/shelter.cgi?shelter=9936,27,6978,258.44444444444446
Tustin Temporary Emergency Shelter,33.704136,-117.841195,2345,Barranca Pkwy,Tustin,CA,"Santa Ana, Anaheim/Orange County CoC",92782,https://www.homelessshelterdirectory.org/cgi-bin/id/shelter.cgi?shelter=15727,27,6978,258.44444444444446
Foothill Family Shelter,34.096378,-117.679776,1501,W 9th St,Upland,CA,San Bernardino City & County CoC,91786,https://www.homelessshelterdirectory.org/cgi-bin/id/shelter.cgi?shelter=11247,14,3125,223.21428571428572
Opportunity House,38.36605,-121.976479,267,Bennett Hill Ct,Vacaville,CA,Vallejo/Solano County CoC,95688,https://www.homelessshelterdirectory.org/cgi-bin/id/shelter.cgi?shelter=14243,3,1162,387.3333333333333
Christian Help Center,38.118877,-122.25911,2166,Sacramento St,Vallejo,CA,Vallejo/Solano County CoC,94590,https://www.homelessshelterdirectory.org/cgi-bin/id/shelter.cgi?shelter=15314,3,1162,387.3333333333333
St Joseph Center Homeless Services And Meals,33.998086,-118.478322,204,Hampton Dr,Venice,CA,Los Angeles City & County CoC,90291,https://www.homelessshelterdirectory.org/cgi-bin/id/shelter.cgi?shelter=11235,63,63706,1011.2063492063492
Our Place Shelter,34.278035,-119.29251,536,E Thompson Blvd,Ventura,CA,"Oxnard, San Buenaventura/Ventura County CoC",93001,https://www.homelessshelterdirectory.org/cgi-bin/id/shelter.cgi?shelter=10489,6,1787,297.8333333333333
Ventura Transitional Living Center,34.278803,-119.29503,155,S Oak St,Ventura,CA,"Oxnard, San Buenaventura/Ventura County CoC",93001,https://www.homelessshelterdirectory.org/cgi-bin/id/shelter.cgi?shelter=13791,6,1787,297.8333333333333
Project Understanding Homeless to Home (H2H),34.294293,-119.296173,43,E Vince St,Ventura,CA,"Oxnard, San Buenaventura/Ventura County CoC",93001,https://www.homelessshelterdirectory.org/cgi-bin/id/shelter.cgi?shelter=12957,6,1787,297.8333333333333
As One Transitional Living,34.482408,-117.351662,12759,Petaluma Rd,Victorville,CA,San Bernardino City & County CoC,92392,https://www.homelessshelterdirectory.org/cgi-bin/id/shelter.cgi?shelter=14023,14,3125,223.21428571428572
Set Free Victorville,34.563438,-117.314616,16949,D St,Victorville,CA,San Bernardino City & County CoC,92395,https://www.homelessshelterdirectory.org/cgi-bin/id/shelter.cgi?shelter=9472,14,3125,223.21428571428572
A1 Q's Place of Peace,34.538723,-117.317815,15846,Cazadero Rd,Victorville,CA,San Bernardino City & County CoC,92394,https://www.homelessshelterdirectory.org/cgi-bin/id/shelter.cgi?shelter=14621,14,3125,223.21428571428572
Visalia Rescue Mission,36.335806,-119.2873,500,E Race Ave,Visalia,CA,"Visalia/Kings, Tulare Counties CoC",93292,https://www.homelessshelterdirectory.org/cgi-bin/id/shelter.cgi?shelter=13771,6,1297,216.16666666666666
Operation HOPE,33.209612,-117.233404,859,E Vista Way,Vista,CA,San Diego City and County CoC,92084,https://www.homelessshelterdirectory.org/cgi-bin/id/shelter.cgi?shelter=14045,23,7638,332.0869565217391
Trinity Center,37.894554,-122.062579,1271,S California Blvd,Walnut Creek,CA,Richmond/Contra Costa County CoC,94596,https://www.homelessshelterdirectory.org/cgi-bin/id/shelter.cgi?shelter=15555,16,2277,142.3125
Pajaro Valley Shelter Services,36.914655,-121.759278,115,Brennan St,Watsonville,CA,Watsonville/Santa Cruz City & County CoC,95076,https://www.homelessshelterdirectory.org/cgi-bin/id/shelter.cgi?shelter=7860,3,2256,752.0
The Salvation Army Watsonville CA,36.90925,-121.75396,214,Union St,Watsonville,CA,Watsonville/Santa Cruz City & County CoC,95076,https://www.homelessshelterdirectory.org/cgi-bin/id/shelter.cgi?shelter=11814,3,2256,752.0
Pajaro Rescue Mission,36.897235,-121.740551,111,Railroad Ave,Royal Oaks,CA,"Salinas/Monterey, San Benito Counties CoC",95076,https://www.homelessshelterdirectory.org/cgi-bin/id/shelter.cgi?shelter=7859,5,2683,536.6
WLCAC Homeless Access Center,33.93574,-118.25399,10950,S Central Ave,Los Angeles,CA,Los Angeles City & County CoC,90059,https://www.homelessshelterdirectory.org/cgi-bin/id/shelter.cgi?shelter=11238,63,63706,1011.2063492063492
Doors Of Hope Women's Shelter,33.776638,-118.261031,529,Broad Ave,Wilmington,CA,Los Angeles City & County CoC,90744,https://www.homelessshelterdirectory.org/cgi-bin/id/shelter.cgi?shelter=13710,63,63706,1011.2063492063492
Beacon Light Mission,33.776507,-118.261019,525,Broad Ave,Wilmington,CA,Los Angeles City & County CoC,90744,https://www.homelessshelterdirectory.org/cgi-bin/id/shelter.cgi?shelter=13709,63,63706,1011.2063492063492
Lane Street Effort,41.730717,-122.640015,417,Lane St,Yreka,CA,"Redding/Shasta, Siskiyou, Lassen, Plumas, Del Norte, Modoc, Sierra Counties CoC",96097,https://www.homelessshelterdirectory.org/cgi-bin/id/shelter.cgi?shelter=10294,2,1529,764.5
Hands of Hope,39.135474,-121.628217,909,Spiva Ave,Yuba City,CA,Yuba City & County/Sutter County CoC,95991,https://www.homelessshelterdirectory.org/cgi-bin/id/shelter.cgi?shelter=15877,1,721,721.0
Salvation Army Booth House,38.892763,-90.183858,114,E 5th St,Alton,IL,Madison County CoC,62002,https://www.homelessshelterdirectory.org/cgi-bin/id/shelter.cgi?shelter=14113,3,79,26.333333333333332
Oasis Women's Shelter,38.889513,-90.185364,111,Market St,Alton,IL,Madison County CoC,62002,https://www.homelessshelterdirectory.org/cgi-bin/id/shelter.cgi?shelter=15284,3,79,26.333333333333332
Elgin Wayside Center,41.75722,-88.31077,215,E New York St,Aurora,IL,"Aurora, Elgin/Kane County CoC",60505,https://www.homelessshelterdirectory.org/cgi-bin/id/shelter.cgi?shelter=8213,5,410,82.0
Hesed House,41.746447,-88.330761,659,S River St,Aurora,IL,"Aurora, Elgin/Kane County CoC",60506,https://www.homelessshelterdirectory.org/cgi-bin/id/shelter.cgi?shelter=10384,5,410,82.0
Salvation Army Safe Harbor Shelter,40.480109,-88.998961,208,N Oak St,Bloomington,IL,Bloomington/Central Illinois CoC,61701,https://www.homelessshelterdirectory.org/cgi-bin/id/shelter.cgi?shelter=15340,5,408,81.6
Home Sweet Home Mission,40.473061,-88.990137,303,E Oakland Ave,Bloomington,IL,Bloomington/Central Illinois CoC,61701,https://www.homelessshelterdirectory.org/cgi-bin/id/shelter.cgi?shelter=7592,5,408,81.6
Safe Harbor Homeless Services,40.479735,-88.999282,611,W Washington St,Bloomington,IL,Bloomington/Central Illinois CoC,61701,https://www.homelessshelterdirectory.org/cgi-bin/id/shelter.cgi?shelter=15232,5,408,81.6
Kingdom Residential Housing,41.664376,-87.667166,12610,S Honore St,Calumet Park,IL,Cook County CoC,60827,https://www.homelessshelterdirectory.org/shelter/il_kingdom-residential-housing,10,846,84.6
Fulton,40.560611,-90.015356,1330,E Ash St,Canton,IL,"Peoria, Pekin/Fulton, Tazewell, Peoria, Woodford Counties CoC",61520,https://www.homelessshelterdirectory.org/cgi-bin/id/shelter.cgi?shelter=15946,6,311,51.833333333333336
Good Samaritan House of Carbondale,37.720068,-89.212631,701,S Marion St,Carbondale,IL,Southern Illinois CoC,62901,https://www.homelessshelterdirectory.org/cgi-bin/id/shelter.cgi?shelter=10071,5,233,46.6
Austin's Place,40.118587,-88.231631,504,E Church St,Champaign,IL,"Champaign, Urbana, Rantoul/Champaign County CoC",61820,https://www.homelessshelterdirectory.org/cgi-bin/id/shelter.cgi?shelter=15940,3,140,46.666666666666664
C,40.120204,-88.239486,70,E Washington St,Champaign,IL,"Champaign, Urbana, Rantoul/Champaign County CoC",61820,https://www.homelessshelterdirectory.org/cgi-bin/id/shelter.cgi?shelter=7750,3,140,46.666666666666664
Salvation Army Stepping Stone Program and Daytime Warming Center,40.141388,-88.23805,2212,N Market St,Champaign,IL,"Champaign, Urbana, Rantoul/Champaign County CoC",61822,https://www.homelessshelterdirectory.org/cgi-bin/id/shelter.cgi?shelter=15942,3,140,46.666666666666664
South Suburban PADS SOUTH TIER,41.505864,-87.659747,414,W Lincoln Hwy,Chicago Heights,IL,Chicago CoC,60411,https://www.homelessshelterdirectory.org/cgi-bin/id/shelter.cgi?shelter=9645,28,5390,192.5
Respond Now,41.504775,-87.634863,1439,Emerald Ave,Chicago Heights,IL,Chicago CoC,60411,https://www.homelessshelterdirectory.org/cgi-bin/id/shelter.cgi?shelter=7918,28,5390,192.5
Darkim Responsible Living for Women Inc Nfp,41.877341,-87.624771,332,S Michigan Ave,Chicago,IL,Chicago CoC,60604,https://www.homelessshelterdirectory.org/cgi-bin/id/shelter.cgi?shelter=15015,28,5390,192.5
Pacific Garden Mission,41.862127,-87.639862,1458,S Canal St,Chicago,IL,Chicago CoC,60607,https://www.homelessshelterdirectory.org/cgi-bin/id/shelter.cgi?shelter=7858,28,5390,192.5
A Safe Haven Foundation,41.867507,-87.695166,2750,W Roosevelt Rd,Chicago,IL,Chicago CoC,60608,https://www.homelessshelterdirectory.org/cgi-bin/id/shelter.cgi?shelter=9623,28,5390,192.5
You Can Make It,41.80167,-87.662551,5052,S Laflin St,Chicago,IL,Chicago CoC,60609,https://www.homelessshelterdirectory.org/cgi-bin/id/shelter.cgi?shelter=11672,28,5390,192.5
Deborah's Place,41.877663,-87.697118,2822,W Jackson Blvd,Chicago,IL,Chicago CoC,60612,https://www.homelessshelterdirectory.org/cgi-bin/id/shelter.cgi?shelter=7381,28,5390,192.5
Franciscan Outreach,41.873557,-87.694244,2715,W Harrison St,Chicago,IL,Chicago CoC,60612,https://www.homelessshelterdirectory.org/cgi-bin/id/shelter.cgi?shelter=10274,28,5390,192.5
Broadway Youth Center,41.955043,-87.65041,4009,N Broadway St,Chicago,IL,Chicago CoC,60613,https://www.homelessshelterdirectory.org/cgi-bin/id/shelter.cgi?shelter=15250,28,5390,192.5
Lincoln Park Community Services,41.925381,-87.643926,600,W Fullerton Pkwy,Chicago,IL,Chicago CoC,60614,https://www.homelessshelterdirectory.org/cgi-bin/id/shelter.cgi?shelter=9697,28,5390,192.5
Believe shelter (Institution for women and kids),41.722091,-87.550759,9519,S Commercial Ave,Chicago,IL,Chicago CoC,60617,https://www.homelessshelterdirectory.org/cgi-bin/id/shelter.cgi?shelter=15236,28,5390,192.5
Ujima Village Youth/Young Adult Shelter,41.761065,-87.631255,7320,S Yale Ave,Chicago,IL,Chicago CoC,60621,https://www.homelessshelterdirectory.org/cgi-bin/id/shelter.cgi?shelter=20380,28,5390,192.5
Maria Shelter,41.761065,-87.631255,7320,S Yale Ave,Chicago,IL,Chicago CoC,60621,https://www.homelessshelterdirectory.org/cgi-bin/id/shelter.cgi?shelter=20311,28,5390,192.5
The Night Ministry,41.901824,-87.662836,1110,N Noble St,Chicago,IL,Chicago CoC,60642,https://www.homelessshelterdirectory.org/cgi-bin/id/shelter.cgi?shelter=12577,28,5390,192.5
Primo Center For Women And Children,41.881599,-87.73215,4241,W Washington Blvd,Chicago,IL,Chicago CoC,60624,https://www.homelessshelterdirectory.org/cgi-bin/id/shelter.cgi?shelter=10538,28,5390,192.5
The Boulevard,41.889846,-87.712985,3465,W Franklin Blvd,Chicago,IL,Chicago CoC,60624,https://www.homelessshelterdirectory.org/cgi-bin/id/shelter.cgi?shelter=7652,28,5390,192.5
Roseland Christian Ministries Grow Program,41.696398,-87.621172,10858,S Michigan Ave,Chicago,IL,Chicago CoC,60628,https://www.homelessshelterdirectory.org/cgi-bin/id/shelter.cgi?shelter=14730,28,5390,192.5
A Little Bit of Heaven Homeless Mens Overnight Shelter,41.688259,-87.627527,11321,S Wentworth Ave,Chicago,IL,Chicago CoC,60628,https://www.homelessshelterdirectory.org/cgi-bin/id/shelter.cgi?shelter=12181,28,5390,192.5
HRDI Women's Supportive Housing,41.686904,-87.622388,33,E 114th St,Chicago,IL,Chicago CoC,60628,https://www.homelessshelterdirectory.org/cgi-bin/id/shelter.cgi?shelter=13431,28,5390,192.5
North Side Housing and Supportive Services,41.96195,-87.674885,4410,N Ravenswood Ave,Chicago,IL,Chicago CoC,60640,https://www.homelessshelterdirectory.org/cgi-bin/id/shelter.cgi?shelter=14427,28,5390,192.5
Cornerstone Community Outreach,41.966653,-87.658989,4628,N Clifton Ave,Chicago,IL,Chicago CoC,60640,https://www.homelessshelterdirectory.org/cgi-bin/id/shelter.cgi?shelter=9627,28,5390,192.5
Sarah's Circle,41.970458,-87.655003,4838,N Sheridan Rd,Chicago,IL,Chicago CoC,60640,https://www.homelessshelterdirectory.org/cgi-bin/id/shelter.cgi?shelter=14642,28,5390,192.5
St. Martin de Porres House of Hope,41.777977,-87.595547,6423,S Woodlawn Ave,Chicago,IL,Chicago CoC,60637,https://www.homelessshelterdirectory.org/cgi-bin/id/shelter.cgi?shelter=8073,28,5390,192.5
La Casa Norte,41.909713,-87.715751,3533,W North Ave,Chicago,IL,Chicago CoC,60647,https://www.homelessshelterdirectory.org/cgi-bin/id/shelter.cgi?shelter=14910,28,5390,192.5
Loving Hands of Jesus Shelter,41.897114,-87.769994,915,N Menard Ave,Chicago,IL,Chicago CoC,60651,https://www.homelessshelterdirectory.org/cgi-bin/id/shelter.cgi?shelter=15800,28,5390,192.5
The Salvation Army Shield of Hope Chicago,41.897905,-87.710265,924,N Christiana Ave,Chicago,IL,Chicago CoC,60651,https://www.homelessshelterdirectory.org/cgi-bin/id/shelter.cgi?shelter=20319,28,5390,192.5
The Salvation Army Freedom Center,41.897418,-87.709674,825,N Christiana Ave,Chicago,IL,Chicago CoC,60651,https://www.homelessshelterdirectory.org/cgi-bin/id/shelter.cgi?shelter=20320,28,5390,192.5
La Posada Family Shelter,41.906018,-87.696511,1343,N California Ave,Chicago,IL,Chicago CoC,60622,https://www.homelessshelterdirectory.org/cgi-bin/id/shelter.cgi?shelter=12408,28,5390,192.5
Danville Rescue Mission,40.137984,-87.611909,834,N Bowman Ave,Danville,IL,Bloomington/Central Illinois CoC,61832,https://www.homelessshelterdirectory.org/cgi-bin/id/shelter.cgi?shelter=15040,5,408,81.6
Virtue House,39.814512,-88.953478,2225,S Franklin Street Rd,Decatur,IL,Decatur/Macon County CoC,62521,https://www.homelessshelterdirectory.org/cgi-bin/id/shelter.cgi?shelter=11858,5,135,27.0
God's Shelter of Love,39.85033,-88.959367,929,N Union St,Decatur,IL,Decatur/Macon County CoC,62522,https://www.homelessshelterdirectory.org/cgi-bin/id/shelter.cgi?shelter=11856,5,135,27.0
Oasis Day Center,39.846669,-88.958338,243,W Cerro Gordo St,Decatur,IL,Decatur/Macon County CoC,62522,https://www.homelessshelterdirectory.org/cgi-bin/id/shelter.cgi?shelter=11854,5,135,27.0
Salvation Army Decatur,39.841156,-88.957904,229,W Main St,Decatur,IL,Decatur/Macon County CoC,62523,https://www.homelessshelterdirectory.org/cgi-bin/id/shelter.cgi?shelter=11859,5,135,27.0
The Water Street Mission Resurrected Homeless Shelter,39.848455,-88.954298,758,N Water St,Decatur,IL,Decatur/Macon County CoC,62523,https://www.homelessshelterdirectory.org/cgi-bin/id/shelter.cgi?shelter=11860,5,135,27.0
Catholic Urban Programs Holy Angels Shelter,38.628458,-90.11118,7,Vieux Carre Dr,East Saint Louis,IL,"East St. Louis, Belleville/St. Clair County CoC",62204,https://www.homelessshelterdirectory.org/cgi-bin/id/shelter.cgi?shelter=7257,2,298,149.0
The Family Living Center,38.613404,-90.128142,510,N 25th St,East Saint Louis,IL,"East St. Louis, Belleville/St. Clair County CoC",62205,https://www.homelessshelterdirectory.org/cgi-bin/id/shelter.cgi?shelter=9525,2,298,149.0
Wayside Cross Ministries Day Shelter,42.044971,-88.273249,453,Fremont St,Elgin,IL,"Aurora, Elgin/Kane County CoC",60120,https://www.homelessshelterdirectory.org/cgi-bin/id/shelter.cgi?shelter=15686,5,410,82.0
PADS of Elgin,42.023163,-88.318875,1730,Berkley St,Elgin,IL,"Aurora, Elgin/Kane County CoC",60123,https://www.homelessshelterdirectory.org/cgi-bin/id/shelter.cgi?shelter=15540,5,410,82.0
Heart House,40.711998,-89.268773,300,Reagan Dr,Eureka,IL,"Peoria, Pekin/Fulton, Tazewell, Peoria, Woodford Counties CoC",61530,https://www.homelessshelterdirectory.org/cgi-bin/id/shelter.cgi?shelter=13233,6,311,51.833333333333336
Mary Lou's Place,42.048966,-87.689152,1215,Church St,Evanston,IL,Cook County CoC,60201,https://www.homelessshelterdirectory.org/cgi-bin/id/shelter.cgi?shelter=14935,10,846,84.6
Connections for the Homeless,42.044635,-87.680844,1458,Chicago Ave,Evanston,IL,Cook County CoC,60201,https://www.homelessshelterdirectory.org/cgi-bin/id/shelter.cgi?shelter=7354,10,846,84.6
Hilda's Place Transitional Shelter,42.044635,-87.680844,1458,Chicago Ave,Evanston,IL,Cook County CoC,60201,https://www.homelessshelterdirectory.org/cgi-bin/id/shelter.cgi?shelter=7581,10,846,84.6
Chicago Ave Mission,42.293808,-89.616836,514,S Chicago Ave,Freeport,IL,"Rock Island, Moline/Northwestern Illinois CoC",61032,https://www.homelessshelterdirectory.org/cgi-bin/id/shelter.cgi?shelter=7481,5,135,27.0
Galesburg Rescue Mission and Women's Shelter Home,40.936767,-90.364094,435,E 3rd St,Galesburg,IL,"Rock Island, Moline/Northwestern Illinois CoC",61401,https://www.homelessshelterdirectory.org/cgi-bin/id/shelter.cgi?shelter=7492,5,135,27.0
The Good Samaritan House of Granite City,38.700023,-90.152789,1825,Delmar Ave,Granite City,IL,Madison County CoC,62040,https://www.homelessshelterdirectory.org/cgi-bin/id/shelter.cgi?shelter=14112,3,79,26.333333333333332
Christian Community Compassion Center 4C's,37.740698,-88.541806,632,N Jackson St,Harrisburg,IL,Southern Illinois CoC,62946,https://www.homelessshelterdirectory.org/cgi-bin/id/shelter.cgi?shelter=15947,5,233,46.6
New Directions Heating and Cooling Center,39.734311,-90.235011,100,S Fayette St,Jacksonville,IL,West Central Illinois CoC,62650,https://www.homelessshelterdirectory.org/cgi-bin/id/shelter.cgi?shelter=14137,3,113,37.666666666666664
Catholic Charities Daybreak Center,41.528219,-88.06484,611,E Cass St,Joliet,IL,"Joliet, Bolingbrook/Will County CoC",60432,https://www.homelessshelterdirectory.org/cgi-bin/id/shelter.cgi?shelter=12303,5,276,55.2
New Day Drop,41.523907,-88.071857,364,E Washington St,Joliet,IL,"Joliet, Bolingbrook/Will County CoC",60433,https://www.homelessshelterdirectory.org/cgi-bin/id/shelter.cgi?shelter=15943,5,276,55.2
MorningStar Mission Ministries Inc.,41.524016,-88.072616,350,E Washington St,Joliet,IL,"Joliet, Bolingbrook/Will County CoC",60433,https://www.homelessshelterdirectory.org/cgi-bin/id/shelter.cgi?shelter=7780,5,276,55.2
Groundwork,41.550943,-88.1221,1550,Plainfield Rd,Joliet,IL,"Joliet, Bolingbrook/Will County CoC",60435,https://www.homelessshelterdirectory.org/cgi-bin/id/shelter.cgi?shelter=9504,5,276,55.2
Gift Of God Street Church Homeless Shelter,41.128347,-87.872518,660,N 5th Ave,Kankakee,IL,Bloomington/Central Illinois CoC,60901,https://www.homelessshelterdirectory.org/cgi-bin/id/shelter.cgi?shelter=20361,5,408,81.6
BEDS Plus,41.820404,-87.898426,9601,Ogden Ave,La Grange,IL,Cook County CoC,60558,https://www.homelessshelterdirectory.org/cgi-bin/id/shelter.cgi?shelter=13385,10,846,84.6
Samaritan Well,40.441048,-90.672383,1306,Maple Ave,Macomb,IL,West Central Illinois CoC,61455,https://www.homelessshelterdirectory.org/cgi-bin/id/shelter.cgi?shelter=14805,3,113,37.666666666666664
Marion Ministerial Alliance,37.733193,-88.926568,103,E Calvert St,Marion,IL,Southern Illinois CoC,62959,https://www.homelessshelterdirectory.org/cgi-bin/id/shelter.cgi?shelter=7738,5,233,46.6
The Haven,39.483375,-88.377332,1812,Western Ave,Mattoon,IL,South Central Illinois CoC,61938,https://www.homelessshelterdirectory.org/cgi-bin/id/shelter.cgi?shelter=15790,1,123,123.0
Housing Forward,41.870093,-87.842625,1851,S 9th Ave,Maywood,IL,Cook County CoC,60153,https://www.homelessshelterdirectory.org/cgi-bin/id/shelter.cgi?shelter=14739,10,846,84.6
McHenry County PADS,42.317798,-88.27574,1805,S State Rte 31,McHenry,IL,McHenry County CoC,60050,https://www.homelessshelterdirectory.org/cgi-bin/id/shelter.cgi?shelter=15055,1,155,155.0
Safe Haven of Mount Carmel,38.407491,-87.762078,217,W 3rd St,Mount Carmel,IL,Southern Illinois CoC,62863,https://www.homelessshelterdirectory.org/cgi-bin/id/shelter.cgi?shelter=13779,5,233,46.6
Lifeboat Alliance,38.319625,-88.911283,1717,Jefferson Ave,Mount Vernon,IL,Southern Illinois CoC,62864,https://www.homelessshelterdirectory.org/cgi-bin/id/shelter.cgi?shelter=15227,5,233,46.6
Ottawa PADS,41.351228,-88.845786,1120,Canal St,Ottawa,IL,"Rock Island, Moline/Northwestern Illinois CoC",61350,https://www.homelessshelterdirectory.org/cgi-bin/id/shelter.cgi?shelter=9954,5,135,27.0
JOURNEYS,42.098885,-88.015074,1140,E Northwest Hwy,Palatine,IL,Cook County CoC,60004,https://www.homelessshelterdirectory.org/cgi-bin/id/shelter.cgi?shelter=14729,10,846,84.6
The Harbour,42.032822,-87.865188,1440,Renaissance Dr,Park Ridge,IL,Cook County CoC,60068,https://www.homelessshelterdirectory.org/cgi-bin/id/shelter.cgi?shelter=10248,10,846,84.6
Salvation Army Rust Transitional Center,40.556798,-89.655938,235,Derby St,Pekin,IL,"Peoria, Pekin/Fulton, Tazewell, Peoria, Woodford Counties CoC",61554,https://www.homelessshelterdirectory.org/cgi-bin/id/shelter.cgi?shelter=14354,6,311,51.833333333333336
Dream Center Peoria,40.697682,-89.592531,714,Hamilton Blvd,Peoria,IL,"Peoria, Pekin/Fulton, Tazewell, Peoria, Woodford Counties CoC",61603,https://www.homelessshelterdirectory.org/cgi-bin/id/shelter.cgi?shelter=15741,6,311,51.833333333333336
South Side Mission Shelter for Women and Children,40.675638,-89.643493,1127,S Laramie St,Peoria,IL,"Peoria, Pekin/Fulton, Tazewell, Peoria, Woodford Counties CoC",61605,https://www.homelessshelterdirectory.org/cgi-bin/id/shelter.cgi?shelter=13624,6,311,51.833333333333336
Peoria Rescue Mission,40.687178,-89.597082,601,SW Adams,Peoria,IL,"Peoria, Pekin/Fulton, Tazewell, Peoria, Woodford Counties CoC",61602,https://www.homelessshelterdirectory.org/cgi-bin/id/shelter.cgi?shelter=7870,6,311,51.833333333333336
Salvation Army Shelter Quincy,39.936008,-91.408131,501,Broadway St,Quincy,IL,West Central Illinois CoC,62301,https://www.homelessshelterdirectory.org/cgi-bin/id/shelter.cgi?shelter=13792,3,113,37.666666666666664
Christian Family Care Center,41.510056,-90.56903,2209,3rd Ave,Rock Island,IL,"Rock Island, Moline/Northwestern Illinois CoC",61201,https://www.homelessshelterdirectory.org/cgi-bin/id/shelter.cgi?shelter=7288,5,135,27.0
Rockford Rescue Mission,42.274066,-89.100007,715,W State St,Rockford,IL,"Rockford/DeKalb, Winnebago, Boone Counties CoC",61102,https://www.homelessshelterdirectory.org/cgi-bin/id/shelter.cgi?shelter=14585,5,465,93.0
American Red Cross Rock River Chapter,42.270599,-89.103712,809,Cedar St,Rockford,IL,"Rockford/DeKalb, Winnebago, Boone Counties CoC",61102,https://www.homelessshelterdirectory.org/cgi-bin/id/shelter.cgi?shelter=7119,5,465,93.0
Shelter Care Ministries,42.275192,-89.094112,412,N Church St,Rockford,IL,"Rockford/DeKalb, Winnebago, Boone Counties CoC",61103,https://www.homelessshelterdirectory.org/cgi-bin/id/shelter.cgi?shelter=8028,5,465,93.0
Carpenter's Place,42.258967,-89.079302,1149,Railroad Ave,Rockford,IL,"Rockford/DeKalb, Winnebago, Boone Counties CoC",61104,https://www.homelessshelterdirectory.org/cgi-bin/id/shelter.cgi?shelter=12859,5,465,93.0
MELD at Trinity House Shelter,42.261348,-89.086554,620,Kishwaukee St,Rockford,IL,"Rockford/DeKalb, Winnebago, Boone Counties CoC",61104,https://www.homelessshelterdirectory.org/cgi-bin/id/shelter.cgi?shelter=8162,5,465,93.0
Lazarus House,41.91254,-88.316279,214,Walnut St,Saint Charles,IL,"Aurora, Elgin/Kane County CoC",60174,https://www.homelessshelterdirectory.org/cgi-bin/id/shelter.cgi?shelter=15402,5,410,82.0
Contact Ministries Emergency Shelter,39.800302,-89.640824,1100,E Adams St,Springfield,IL,Springfield/Sangamon County CoC,62703,https://www.homelessshelterdirectory.org/cgi-bin/id/shelter.cgi?shelter=10128,1,294,294.0
Twin Cities PADS,41.815672,-89.695341,111,E 29th St,Sterling,IL,"Rock Island, Moline/Northwestern Illinois CoC",61081,https://www.homelessshelterdirectory.org/cgi-bin/id/shelter.cgi?shelter=10503,5,135,27.0
Love Inc Lake County,42.363951,-87.881796,339,N Lakewood Ave,Waukegan,IL,"Waukegan, North Chicago/Lake County CoC",60085,https://www.homelessshelterdirectory.org/cgi-bin/id/shelter.cgi?shelter=15951,5,292,58.4
Pads Lake County,42.370495,-87.854044,1800,Grand Ave,Waukegan,IL,"Waukegan, North Chicago/Lake County CoC",60085,https://www.homelessshelterdirectory.org/cgi-bin/id/shelter.cgi?shelter=15950,5,292,58.4
COOL MINISTRIES,42.37774,-87.840596,800,W Glen Flora Ave,Waukegan,IL,"Waukegan, North Chicago/Lake County CoC",60085,https://www.homelessshelterdirectory.org/cgi-bin/id/shelter.cgi?shelter=15952,5,292,58.4
Marys' Mission,42.347806,-87.83384,642,S Martin Luther King Jr Ave,Waukegan,IL,"Waukegan, North Chicago/Lake County CoC",60085,https://www.homelessshelterdirectory.org/cgi-bin/id/shelter.cgi?shelter=12362,5,292,58.4
Family Shelter Service,41.85925,-88.097635,605,E Roosevelt Rd,Wheaton,IL,DuPage County CoC,60187,https://www.homelessshelterdirectory.org/cgi-bin/id/shelter.cgi?shelter=15945,2,328,164.0
Dupage PADS Overnight Housing Assistance Program,41.864228,-88.11681,705,W Liberty Dr,Wheaton,IL,DuPage County CoC,60187,https://www.homelessshelterdirectory.org/cgi-bin/id/shelter.cgi?shelter=11405,2,328,164.0
Crisis Center for South Suburbia,41.690434,-87.783947,6602,W 111th St,Worth,IL,Cook County CoC,60482,https://www.homelessshelterdirectory.org/cgi-bin/id/shelter.cgi?shelter=13202,10,846,84.6
"BEDS Plus, Worth IL",41.692173,-87.80701,11005,S 76th Ave,Worth,IL,Cook County CoC,60482,https://www.homelessshelterdirectory.org/cgi-bin/id/shelter.cgi?shelter=15857,10,846,84.6
Kendall County PADS,41.631299,-88.443274,1204,Deer St,Yorkville,IL,"Joliet, Bolingbrook/Will County CoC",60560,https://www.homelessshelterdirectory.org/cgi-bin/id/shelter.cgi?shelter=10418,5,276,55.2
A Safe Place,42.465929,-87.850311,2710,17th St,Zion,IL,"Waukegan, North Chicago/Lake County CoC",60099,https://www.homelessshelterdirectory.org/cgi-bin/id/shelter.cgi?shelter=15948,5,292,58.4
Harmony Family Services Emergency Shelter For Children,32.452379,-99.741307,305,Grape St,Abilene,TX,Texas Balance of State CoC,79601,https://www.homelessshelterdirectory.org/cgi-bin/id/shelter.cgi?shelter=11480,91,9198,101.07692307692308
Abilene Hope Haven,32.439966,-99.728143,801,S Treadaway Blvd,Abilene,TX,Texas Balance of State CoC,79602,https://www.homelessshelterdirectory.org/cgi-bin/id/shelter.cgi?shelter=7096,91,9198,101.07692307692308
Salvation Army Abilene Homeless Shelter,32.428728,-99.73876,1726,Butternut St,Abilene,TX,Texas Balance of State CoC,79602,https://www.homelessshelterdirectory.org/cgi-bin/id/shelter.cgi?shelter=11481,91,9198,101.07692307692308
Love and Care Ministries Homeless Assistance,32.452568,-99.756721,233,Fannin St,Abilene,TX,Texas Balance of State CoC,79603,https://www.homelessshelterdirectory.org/cgi-bin/id/shelter.cgi?shelter=11482,91,9198,101.07692307692308
City of Refuge (day refuge,35.20829,-101.846846,613,S Adams St,Amarillo,TX,Amarillo CoC,79101,https://www.homelessshelterdirectory.org/cgi-bin/id/shelter.cgi?shelter=7316,8,600,75.0
Downtown Women's Center,35.21001,-101.842644,409,S Monroe St,Amarillo,TX,Amarillo CoC,79101,https://www.homelessshelterdirectory.org/cgi-bin/id/shelter.cgi?shelter=7404,8,600,75.0
Salvation Army of Amarillo Shelter,35.209606,-101.839607,400,S Harrison St,Amarillo,TX,Amarillo CoC,79101,https://www.homelessshelterdirectory.org/cgi-bin/id/shelter.cgi?shelter=16002,8,600,75.0
Another Chance House,35.211904,-101.840982,209,S Jackson St,Amarillo,TX,Amarillo CoC,79101,https://www.homelessshelterdirectory.org/cgi-bin/id/shelter.cgi?shelter=8315,8,600,75.0
Guyon Saunders Resource Center,35.211661,-101.837911,200,S Tyler St,Amarillo,TX,Amarillo CoC,79101,https://www.homelessshelterdirectory.org/cgi-bin/id/shelter.cgi?shelter=14315,8,600,75.0
Family Support Services,35.18774,-101.915598,7136,W I-40,Amarillo,TX,Amarillo CoC,79106,https://www.homelessshelterdirectory.org/cgi-bin/id/shelter.cgi?shelter=7458,8,600,75.0
Martha's Home Inc.,35.195758,-101.85101,1204,W 18th Ave,Amarillo,TX,Amarillo CoC,79102,https://www.homelessshelterdirectory.org/cgi-bin/id/shelter.cgi?shelter=7741,8,600,75.0
Faith City Mission,35.219659,-101.835313,600,N Tyler St,Amarillo,TX,Amarillo CoC,79107,https://www.homelessshelterdirectory.org/cgi-bin/id/shelter.cgi?shelter=7447,8,600,75.0
Safehaven of Tarrant County,32.743412,-97.112431,1100,Hemphill St,Fort Worth,TX,"Fort Worth, Arlington/Tarrant County CoC",76011,https://www.homelessshelterdirectory.org/cgi-bin/id/shelter.cgi?shelter=7134,21,2126,101.23809523809524
Arlington Family Life Shelter,32.734989,-97.115784,712,W Abram St,Arlington,TX,"Fort Worth, Arlington/Tarrant County CoC",76013,https://www.homelessshelterdirectory.org/cgi-bin/id/shelter.cgi?shelter=13732,21,2126,101.23809523809524
Mission Arlington,32.734724,-97.109246,210,W South St,Arlington,TX,"Fort Worth, Arlington/Tarrant County CoC",76010,https://www.homelessshelterdirectory.org/cgi-bin/id/shelter.cgi?shelter=7771,21,2126,101.23809523809524
Arlington Life Shelter,32.739615,-97.110247,325,W Division St,Arlington,TX,"Fort Worth, Arlington/Tarrant County CoC",76011,https://www.homelessshelterdirectory.org/cgi-bin/id/shelter.cgi?shelter=7132,21,2126,101.23809523809524
Austin Resource Center for the Homeless,30.267982,-97.737619,500,E 7th St,Austin,TX,Austin/Travis County CoC,78701,https://www.homelessshelterdirectory.org/cgi-bin/id/shelter.cgi?shelter=7090,4,2506,626.5
Casa Marianella,30.259889,-97.701014,821,Gunter St,Austin,TX,Austin/Travis County CoC,78702,https://www.homelessshelterdirectory.org/cgi-bin/id/shelter.cgi?shelter=7236,4,2506,626.5
